{
  "stations": [
    {
      "brand": "United",
      "code": "972",
      "name": "United Petroleum Umina",
      "address": "307-313 Ocean Beach Road, UMINA BEACH NSW 2257",
      "location": {
        "latitude": -33.511231,
        "longitude": 151.318092
      }
    },
    {
      "brand": "United",
      "code": "2051",
      "name": "United Petroleum Wilberforce",
      "address": "539 Wilberforce Rd, WILBERFORCE NSW 2756",
      "location": {
        "latitude": -33.563026,
        "longitude": 150.838403
      }
    },
    {
      "brand": "Caltex Woolworths",
      "code": "2116",
      "name": "Caltex Woolworths Beacon Hill",
      "address": "176 Warringah Rd, BEACON HILL NSW 2100",
      "location": {
        "latitude": -33.753784,
        "longitude": 151.260227
      }
    },
    {
      "brand": "Caltex",
      "code": "2117",
      "name": "Toowoon Bay Service Station",
      "address": "142 Bay Rd, TOOWOON BAY NSW 2261",
      "location": {
        "latitude": -33.360126,
        "longitude": 151.497039
      }
    },
    {
      "brand": "Metro Fuel",
      "code": "2118",
      "name": "Metro Petroleum Oakflats",
      "address": "80-82 Central Ave, OAK FLATS NSW 2529",
      "location": {
        "latitude": -34.562617,
        "longitude": 150.819412
      }
    },
    {
      "brand": "BP",
      "code": "2119",
      "name": "BP South Hurstville",
      "address": "61-63 Connells Point South, HURSTVILLE NSW 2221",
      "location": {
        "latitude": -33.978065,
        "longitude": 151.104216
      }
    },
    {
      "brand": "Caltex",
      "code": "2120",
      "name": "Caltex Starshop",
      "address": "315 Auburn Street, Goulburn NSW 2580",
      "location": {
        "latitude": -34.749331,
        "longitude": 149.723288
      }
    },
    {
      "brand": "Caltex",
      "code": "2121",
      "name": "Caltex Starmart Goulburn",
      "address": "68 Goldsmith Street, Goulburn NSW 2580",
      "location": {
        "latitude": -34.750266,
        "longitude": 149.719228
      }
    },
    {
      "brand": "Shell",
      "code": "2126",
      "name": "Cumnock General Store",
      "address": "31 Obley St, CUMNOCK NSW 2867",
      "location": {
        "latitude": -32.928744,
        "longitude": 148.755153
      }
    },
    {
      "brand": "Enhance",
      "code": "2123",
      "name": "Enhance Granville",
      "address": "2 Rawson Road, GRANVILLE NSW 2142",
      "location": {
        "latitude": -33.863363,
        "longitude": 151.008882
      }
    },
    {
      "brand": "Caltex",
      "code": "2125",
      "name": "Caltex StarMart Lambton",
      "address": "422 Newcastle Road, Lambton NSW 2299",
      "location": {
        "latitude": -32.9097866,
        "longitude": 151.7086089
      }
    },
    {
      "brand": "Caltex",
      "code": "2140",
      "name": "Caltex",
      "address": "5-11 Gateway Bvd, MORISSET NSW 2264",
      "location": {
        "latitude": -33.116728,
        "longitude": 151.471144
      }
    },
    {
      "brand": "Caltex",
      "code": "2127",
      "name": "Caltex Lightning Ridge",
      "address": "1 Morilla Street, LIGHTNING RIDGE NSW 2834",
      "location": {
        "latitude": -29.429641,
        "longitude": 147.974723
      }
    },
    {
      "brand": "Caltex",
      "code": "2128",
      "name": "Caltex Nyngan",
      "address": "39 Pangee St, NYNGAN NSW 2825",
      "location": {
        "latitude": -31.560944,
        "longitude": 147.191497
      }
    },
    {
      "brand": "Caltex Woolworths",
      "code": "2129",
      "name": "Caltex Woolworths West Ryde",
      "address": "924 Victoria Rd, WEST RYDE NSW 2114",
      "location": {
        "latitude": -33.810887,
        "longitude": 151.093485
      }
    },
    {
      "brand": "Caltex",
      "code": "2131",
      "name": "Caltex Kiama",
      "address": "180 Manning St, KIAMA NSW 2533",
      "location": {
        "latitude": -34.682393,
        "longitude": 150.848315
      }
    },
    {
      "brand": "Caltex",
      "code": "2132",
      "name": "Caltex Gumly Gumly",
      "address": "Caltex 3723 Sturt Hwy, GUMLY GUMLY NSW 2652",
      "location": {
        "latitude": -35.136094,
        "longitude": 147.442429
      }
    },
    {
      "brand": "Caltex",
      "code": "2135",
      "name": "Tasco Petroleum",
      "address": "44-46 Vance Rd, LEETON NSW 2705",
      "location": {
        "latitude": -34.54381,
        "longitude": 146.387014
      }
    },
    {
      "brand": "Shell",
      "code": "2136",
      "name": "Transwest Fuels",
      "address": "286 Manilla St, MANILLA NSW 2346",
      "location": {
        "latitude": -30.7397134,
        "longitude": 150.7162884
      }
    },
    {
      "brand": "Shell",
      "code": "2137",
      "name": "Transwest Fuels",
      "address": "2 Chelmsford St, KOOTINGAL NSW 2352",
      "location": {
        "latitude": -31.0560489,
        "longitude": 151.0475884
      }
    },
    {
      "brand": "Independent",
      "code": "2141",
      "name": "Powerfuel",
      "address": "101 Blaxcell St, GRANVILLE NSW 2142",
      "location": {
        "latitude": -33.842551,
        "longitude": 151.010602
      }
    },
    {
      "brand": "BP",
      "code": "2142",
      "name": "BP Albury",
      "address": "842 David St, NORTH ALBURY NSW 2640",
      "location": {
        "latitude": -36.063923,
        "longitude": 146.925276
      }
    },
    {
      "brand": "Puma Energy",
      "code": "2144",
      "name": "Puma Thornton",
      "address": "1 Weakleys Dr, THORNTON NSW 2322",
      "location": {
        "latitude": -32.792887,
        "longitude": 151.636198
      }
    },
    {
      "brand": "BP",
      "code": "2145",
      "name": "BP Eastern Creek",
      "address": "101 Wallgrove Rd, EASTERN CREEK NSW 2766",
      "location": {
        "latitude": -33.812043,
        "longitude": 150.850204
      }
    },
    {
      "brand": "BP",
      "code": "2146",
      "name": "Gooloogong Handymart",
      "address": "5 King St, GOOLOOGONG NSW 2805",
      "location": {
        "latitude": -33.614629,
        "longitude": 148.435192
      }
    },
    {
      "brand": "Caltex",
      "code": "2149",
      "name": "Caltex Tamworth",
      "address": "21 White St, TAMWORTH NSW 2340",
      "location": {
        "latitude": -31.092465,
        "longitude": 150.93421
      }
    },
    {
      "brand": "Caltex",
      "code": "2150",
      "name": "Rao KBSS Pty Ltd",
      "address": "1-7 Buchanan St, SOUTH MURWILLUMBAH NSW 2484",
      "location": {
        "latitude": -28.326832,
        "longitude": 153.409307
      }
    },
    {
      "brand": "Metro Fuel",
      "code": "2151",
      "name": "Metro Petroleum Keiraville",
      "address": "270 Gipps Rd, KEIRAVILLE NSW 2500",
      "location": {
        "latitude": -34.414681,
        "longitude": 150.875122
      }
    },
    {
      "brand": "Caltex",
      "code": "2152",
      "name": "Caltex Londonderry",
      "address": "521 Carrington Road, LONDONDERRY NSW 2753",
      "location": {
        "latitude": -33.645291,
        "longitude": 150.736159
      }
    },
    {
      "brand": "BP",
      "code": "2153",
      "name": "BP Matraville",
      "address": "585 Bunnerong Rd, MATRAVILLE NSW 2036",
      "location": {
        "latitude": -33.963312,
        "longitude": 151.231804
      }
    },
    {
      "brand": "7-Eleven",
      "code": "2155",
      "name": "7-Eleven Thornton",
      "address": "1 Glenwood Dr, THORNTON NSW 2322",
      "location": {
        "latitude": -32.791875,
        "longitude": 151.636767
      }
    },
    {
      "brand": "Enhance",
      "code": "2156",
      "name": "Enhance Kiama",
      "address": "41 Collins St, KIAMA NSW 2533",
      "location": {
        "latitude": -34.667863,
        "longitude": 150.853491
      }
    },
    {
      "brand": "Independent",
      "code": "2157",
      "name": "Summers IGA",
      "address": "5 Denman Ave, KOOTINGAL NSW 2352",
      "location": {
        "latitude": -31.056723,
        "longitude": 151.054423
      }
    },
    {
      "brand": "BP",
      "code": "2158",
      "name": "Srini Associates Pty Ltd",
      "address": "42-46 King St, WARRAWONG NSW 2502",
      "location": {
        "latitude": -34.483794,
        "longitude": 150.887174
      }
    },
    {
      "brand": "BP",
      "code": "2159",
      "name": "Mountain Motors Walcha",
      "address": "18n Derby St, WALCHA NSW 2354",
      "location": {
        "latitude": -30.984604,
        "longitude": 151.593797
      }
    },
    {
      "brand": "Independent",
      "code": "2176",
      "name": "Vignes Independent Petroleum",
      "address": "28 Sawtell Rd, TOORMINA NSW 2452",
      "location": {
        "latitude": -30.352188,
        "longitude": 153.10031
      }
    },
    {
      "brand": "Independent",
      "code": "2180",
      "name": "Palms Oasis Convenience Store and Service Station",
      "address": "Palms Oasis Shop Res 321 Boomerang Dr, BLUEYS BEACH NSW 2428",
      "location": {
        "latitude": -32.342622,
        "longitude": 152.525904
      }
    },
    {
      "brand": "Metro Fuel",
      "code": "2181",
      "name": "Metro Fuel Murrumburrah",
      "address": "379 Albury St, HARDEN NSW 2587",
      "location": {
        "latitude": -34.547759,
        "longitude": 148.345904
      }
    },
    {
      "brand": "Caltex",
      "code": "2182",
      "name": "Caltex Port Kembla",
      "address": "1-3 Church St, PORT KEMBLA NSW 2505",
      "location": {
        "latitude": -34.484509,
        "longitude": 150.904003
      }
    },
    {
      "brand": "Caltex",
      "code": "2183",
      "name": "Caltex Tahmoor",
      "address": "2900 Remembrance Drwy, BARGO NSW 2574",
      "location": {
        "latitude": -34.244807,
        "longitude": 150.577999
      }
    },
    {
      "brand": "Independent",
      "code": "2184",
      "name": "South Petrol",
      "address": "48 Illawarra St, PORT KEMBLA NSW 2505",
      "location": {
        "latitude": -34.48657,
        "longitude": 150.901734
      }
    },
    {
      "brand": "Caltex",
      "code": "2185",
      "name": "Willow Tree Truck Stop",
      "address": "Cnr Kamilaroi Highway & New England Highway, WILLOW TREE NSW 2339",
      "location": {
        "latitude": -31.635499,
        "longitude": 150.722688
      }
    },
    {
      "brand": "BP",
      "code": "2186",
      "name": "Cafe Nundle",
      "address": "90-92 Jenkins St, NUNDLE NSW 2340",
      "location": {
        "latitude": -31.459454,
        "longitude": 151.128556
      }
    },
    {
      "brand": "Independent",
      "code": "2187",
      "name": "RC & LF Easman",
      "address": "176 Warren Rd, GILGANDRA NSW 2827",
      "location": {
        "latitude": -31.710229,
        "longitude": 148.654277
      }
    },
    {
      "brand": "Metro Fuel",
      "code": "2188",
      "name": "Metro Petroleum Forestville",
      "address": "656 Warringah Rd, FORESTVILLE NSW 2087",
      "location": {
        "latitude": -33.759677,
        "longitude": 151.212056
      }
    },
    {
      "brand": "Independent",
      "code": "2189",
      "name": "Attunga General Store",
      "address": "5 Manilla Rd, ATTUNGA NSW 2345",
      "location": {
        "latitude": -30.928783,
        "longitude": 150.845825
      }
    },
    {
      "brand": "Westside",
      "code": "2190",
      "name": "Westside Petroleum Bundanoon",
      "address": "61 Railway Ave, BUNDANOON NSW 2578",
      "location": {
        "latitude": -34.65533,
        "longitude": 150.303964
      }
    },
    {
      "brand": "Caltex",
      "code": "2191",
      "name": "Caltex Maryland",
      "address": "41 Minmi Rd, WALLSEND NSW 2287",
      "location": {
        "latitude": -32.889608,
        "longitude": 151.661916
      }
    },
    {
      "brand": "Caltex",
      "code": "2192",
      "name": "Erowal Bay General Store",
      "address": "42 Naval Pde, EROWAL BAY NSW 2540",
      "location": {
        "latitude": -35.099591,
        "longitude": 150.650958
      }
    },
    {
      "brand": "Puma Energy",
      "code": "2193",
      "name": "Matilda Muswellbrook",
      "address": "42-50 Sydney St, MUSWELLBROOK NSW 2333",
      "location": {
        "latitude": -32.268367,
        "longitude": 150.886748
      }
    },
    {
      "brand": "Caltex",
      "code": "2194",
      "name": "Junee Tyre Service",
      "address": "Corner Cox And Main Street, JUNEE NSW 2663",
      "location": {
        "latitude": -34.867478,
        "longitude": 147.584937
      }
    },
    {
      "brand": "Independent",
      "code": "2195",
      "name": "Aberdeen Fuels",
      "address": "134 MacQueen St, ABERDEEN NSW 2336",
      "location": {
        "latitude": -32.168342,
        "longitude": 150.891809
      }
    },
    {
      "brand": "BP",
      "code": "2196",
      "name": "BP Portland",
      "address": "35-37 Williwa St, PORTLAND NSW 2847",
      "location": {
        "latitude": -33.3563,
        "longitude": 149.983
      }
    },
    {
      "brand": "Caltex",
      "code": "2197",
      "name": "Caltex Grafton",
      "address": "179 Prince St, GRAFTON NSW 2460",
      "location": {
        "latitude": -29.686094,
        "longitude": 152.937107
      }
    },
    {
      "brand": "Independent",
      "code": "2198",
      "name": "Berowra Petroleum",
      "address": "111 Berowra Waters Rd, BEROWRA HEIGHTS NSW 2082",
      "location": {
        "latitude": -33.615454,
        "longitude": 151.141677
      }
    },
    {
      "brand": "Shell",
      "code": "2200",
      "name": "Tea Tree Cafe",
      "address": "160 Mount Darragh Rd, SOUTH PAMBULA NSW 2549",
      "location": {
        "latitude": -36.944277,
        "longitude": 149.845399
      }
    },
    {
      "brand": "Caltex",
      "code": "2201",
      "name": "Laurinda Pty Ltd",
      "address": "126 Pacific Hwy, SWANSEA NSW 2281",
      "location": {
        "latitude": -33.088069,
        "longitude": 151.638259
      }
    },
    {
      "brand": "Caltex",
      "code": "2204",
      "name": "Caltex Starmart Concord",
      "address": "87-89 Parramatta Rd, CONCORD NSW 2137",
      "location": {
        "latitude": -33.867895,
        "longitude": 151.099444
      }
    },
    {
      "brand": "Independent",
      "code": "2205",
      "name": "IGA Blackheath",
      "address": "211 Great Western Hwy, BLACKHEATH NSW 2785",
      "location": {
        "latitude": -33.637526,
        "longitude": 150.285357
      }
    },
    {
      "brand": "Independent",
      "code": "2207",
      "name": "Russell Vale Service Station",
      "address": "115 Bellambi Lane, BELLAMBI NSW 2518",
      "location": {
        "latitude": -34.361313,
        "longitude": 150.899472
      }
    },
    {
      "brand": "Caltex",
      "code": "2208",
      "name": "Caltex Inverell Roadhouse",
      "address": "Roadhouse 143-149 Warialda Rd, INVERELL NSW 2360",
      "location": {
        "latitude": -29.774375,
        "longitude": 151.091373
      }
    },
    {
      "brand": "Shell",
      "code": "2209",
      "name": "Shell Warialda",
      "address": "46 Geddes St, WARIALDA NSW 2402",
      "location": {
        "latitude": -29.542777,
        "longitude": 150.574904
      }
    },
    {
      "brand": "Caltex",
      "code": "2210",
      "name": "Caltex South Grafton",
      "address": "43 Pacific Hwy, SOUTH GRAFTON NSW 2460",
      "location": {
        "latitude": -29.707344,
        "longitude": 152.942431
      }
    },
    {
      "brand": "Metro Fuel",
      "code": "2211",
      "name": "Metro Londonderry",
      "address": "486 Londonderry Rd, LONDONDERRY NSW 2753",
      "location": {
        "latitude": -33.642335,
        "longitude": 150.734374
      }
    },
    {
      "brand": "Independent",
      "code": "2212",
      "name": "Advanced Fuel Kanahooka",
      "address": "92 Lakeside Drive, KANAHOOKA NSW 2530",
      "location": {
        "latitude": -34.501227,
        "longitude": 150.814623
      }
    },
    {
      "brand": "Independent",
      "code": "2217",
      "name": "Tenterfield Fuel",
      "address": "159 Rouse St, TENTERFIELD NSW 2372",
      "location": {
        "latitude": -29.057036,
        "longitude": 152.018801
      }
    },
    {
      "brand": "BP",
      "code": "2221",
      "name": "BP Guildford",
      "address": "257 Guildford Rd, GUILDFORD NSW 2161",
      "location": {
        "latitude": -33.85437,
        "longitude": 150.988836
      }
    },
    {
      "brand": "Westside",
      "code": "2222",
      "name": "Westside Petroleum (Wyong)",
      "address": "140 Pacific Hwy, WYONG NSW 2259",
      "location": {
        "latitude": -33.282127,
        "longitude": 151.425659
      }
    },
    {
      "brand": "Metro Fuel",
      "code": "2223",
      "name": "Riverside Co",
      "address": "203 Charlotte Bay St, CHARLOTTE BAY NSW 2428",
      "location": {
        "latitude": -32.343233,
        "longitude": 152.51482
      }
    },
    {
      "brand": "Enhance",
      "code": "2224",
      "name": "Greenwell Point Service Centre",
      "address": "85 Greenwell Point Rd, GREENWELL POINT NSW 2540",
      "location": {
        "latitude": -34.907742,
        "longitude": 150.731929
      }
    },
    {
      "brand": "Caltex",
      "code": "2225",
      "name": "Caltex Bombala Depot",
      "address": "Cnr High St & Stephen St, BOMBALA NSW 2632",
      "location": {
        "latitude": -36.904033,
        "longitude": 149.241442
      }
    },
    {
      "brand": "Caltex",
      "code": "2226",
      "name": "Caltex Goulburn Depot",
      "address": "13 Sloane St, GOULBURN NSW 2580",
      "location": {
        "latitude": -34.774432,
        "longitude": 149.708442
      }
    },
    {
      "brand": "Caltex",
      "code": "2227",
      "name": "Caltex Bega Depot",
      "address": "36-40 Lagoon Street, BEGA NSW 2550",
      "location": {
        "latitude": -36.668663,
        "longitude": 149.829085
      }
    },
    {
      "brand": "BP",
      "code": "2228",
      "name": "BP Greta",
      "address": "122 High St, GRETA NSW 2334",
      "location": {
        "latitude": -32.675933,
        "longitude": 151.387434
      }
    },
    {
      "brand": "Shell",
      "code": "2229",
      "name": "Shell Tenterfield",
      "address": "69 Rouse St, TENTERFIELD NSW 2372",
      "location": {
        "latitude": -29.064999,
        "longitude": 152.016886
      }
    },
    {
      "brand": "BP",
      "code": "2230",
      "name": "Manildra Newsagency & Roadhouse",
      "address": "2 Kiewa St, MANILDRA NSW 2865",
      "location": {
        "latitude": -33.185679,
        "longitude": 148.687391
      }
    },
    {
      "brand": "Metro Fuel",
      "code": "2231",
      "name": "Metro Petroleum Tenterfield",
      "address": "150 High St, TENTERFIELD NSW 2372",
      "location": {
        "latitude": -29.053594,
        "longitude": 152.020847
      }
    },
    {
      "brand": "7-Eleven",
      "code": "2232",
      "name": "7-Eleven Albion Park Rail",
      "address": "47-57 Princess Highway, ALBION PARK RAIL NSW 2527",
      "location": {
        "latitude": -34.552962,
        "longitude": 150.788927
      }
    },
    {
      "brand": "Caltex",
      "code": "2233",
      "name": "Berrigan Fuels and Newsagency",
      "address": "160-162 Jerilderie St, BERRIGAN NSW 2712",
      "location": {
        "latitude": -35.664716,
        "longitude": 145.816253
      }
    },
    {
      "brand": "Metro Fuel",
      "code": "2242",
      "name": "Metro Petroleum Chester Hill",
      "address": "172 Hector St, CHESTER HILL NSW 2162",
      "location": {
        "latitude": -33.8889,
        "longitude": 151.005411
      }
    },
    {
      "brand": "Caltex",
      "code": "2241",
      "name": "Star Mart Chinderah",
      "address": "Tweed Valley Way, CHINDERAH NSW 2487",
      "location": {
        "latitude": -28.256781,
        "longitude": 153.527876
      }
    },
    {
      "brand": "Metro Fuel",
      "code": "2234",
      "name": "Metro Petroleum Orange",
      "address": "1686 Forest Rd, ORANGE NSW 2800",
      "location": {
        "latitude": -33.303577,
        "longitude": 149.100146
      }
    },
    {
      "brand": "BP",
      "code": "2240",
      "name": "BP Haberfield",
      "address": "95-97 Ramsay St, HABERFIELD NSW 2045",
      "location": {
        "latitude": -33.881623,
        "longitude": 151.140229
      }
    },
    {
      "brand": "Metro Fuel",
      "code": "2239",
      "name": "Caltex Metro Bow Bowing",
      "address": "101 Campbelltown Rd, MINTO NSW 2566",
      "location": {
        "latitude": -34.023753,
        "longitude": 150.835143
      }
    },
    {
      "brand": "Caltex",
      "code": "2238",
      "name": "Fuel On Pty Ltd",
      "address": "10 George St, MARULAN NSW 2579",
      "location": {
        "latitude": -34.716247,
        "longitude": 150.000654
      }
    },
    {
      "brand": "BP",
      "code": "2237",
      "name": "Rural Supplies Coolamon",
      "address": "82 Cowabbie St, COOLAMON NSW 2701",
      "location": {
        "latitude": -34.817305,
        "longitude": 147.200239
      }
    },
    {
      "brand": "Caltex",
      "code": "2235",
      "name": "Caltex Mount Pritchard",
      "address": "472 Cabramatta Rd, MOUNT PRITCHARD NSW 2170",
      "location": {
        "latitude": -33.897035,
        "longitude": 150.912348
      }
    },
    {
      "brand": "Shell",
      "code": "2243",
      "name": "Shell Narooma",
      "address": "16 Princes Hwy, NAROOMA NSW 2546",
      "location": {
        "latitude": -36.213378,
        "longitude": 150.123376
      }
    },
    {
      "brand": "Metro Fuel",
      "code": "2244",
      "name": "Metro Petroleum St Marys",
      "address": "516-526 Great Western Hwy, ST MARYS NSW 2760",
      "location": {
        "latitude": -33.770182,
        "longitude": 150.765836
      }
    },
    {
      "brand": "Independent",
      "code": "2245",
      "name": "Willawarrin General Store and Post Office",
      "address": "44 Main St, WILLAWARRIN NSW 2440",
      "location": {
        "latitude": -30.929073,
        "longitude": 152.627128
      }
    },
    {
      "brand": "Metro Fuel",
      "code": "2246",
      "name": "Metro Goulburn",
      "address": "60-68 Clinton Street, GOULBURN NSW 2580",
      "location": {
        "latitude": -34.757254,
        "longitude": 149.714102
      }
    },
    {
      "brand": "Caltex Woolworths",
      "code": "2247",
      "name": "Caltex Woolworths Goulburn South",
      "address": "Corner Hume Street And Ducks Lane, GOULBURN NSW 2580",
      "location": {
        "latitude": -34.771998,
        "longitude": 149.691048
      }
    },
    {
      "brand": "Caltex",
      "code": "2249",
      "name": "Alliance Petroleum Pty Ltd",
      "address": "15 Glastonbury Ave, UNANDERRA NSW 2526",
      "location": {
        "latitude": -34.458729,
        "longitude": 150.85667
      }
    },
    {
      "brand": "Puma Energy",
      "code": "2250",
      "name": "Puma Wetherill Park",
      "address": "449 Victoria St, WETHERILL PARK NSW 2164",
      "location": {
        "latitude": -33.844911,
        "longitude": 150.89233
      }
    },
    {
      "brand": "Metro Fuel",
      "code": "2251",
      "name": "Metro Grenfell",
      "address": "75 Camp St, GRENFELL NSW 2810",
      "location": {
        "latitude": -33.895478,
        "longitude": 148.163026
      }
    },
    {
      "brand": "BP",
      "code": "2252",
      "name": "BP Silverwater",
      "address": "Cnr Silverwater Road & Derby Street, SILVERWATER NSW 2128",
      "location": {
        "latitude": -33.837648,
        "longitude": 151.046763
      }
    },
    {
      "brand": "Independent",
      "code": "2254",
      "name": "Nemingha Fuels",
      "address": "1049 Armidale Rd, NEMINGHA NSW 2340",
      "location": {
        "latitude": -31.123722,
        "longitude": 150.983468
      }
    },
    {
      "brand": "Shell",
      "code": "2255",
      "name": "Shell Gloucester",
      "address": "1 Park St, GLOUCESTER NSW 2422",
      "location": {
        "latitude": -32.005298,
        "longitude": 151.957801
      }
    },
    {
      "brand": "Caltex",
      "code": "2256",
      "name": "BK Cafe and Fuel",
      "address": "70 Court St, MANILLA NSW 2346",
      "location": {
        "latitude": -30.748218,
        "longitude": 150.724537
      }
    },
    {
      "brand": "Lowes",
      "code": "2257",
      "name": "Lowes Petroleum Service",
      "address": "4 Martin St, WILCANNIA NSW 2836",
      "location": {
        "latitude": -31.562264,
        "longitude": 143.376225
      }
    },
    {
      "brand": "Caltex",
      "code": "2258",
      "name": "Caltex Mudgee",
      "address": "114-116 Church Street, MUDGEE NSW 2850",
      "location": {
        "latitude": -32.594276,
        "longitude": 149.587624
      }
    },
    {
      "brand": "BP",
      "code": "2259",
      "name": "BP Rose Bay",
      "address": "777 New South Head Rd, ROSE BAY NSW 2029",
      "location": {
        "latitude": -33.870581,
        "longitude": 151.268579
      }
    },
    {
      "brand": "Caltex",
      "code": "2260",
      "name": "Caltex PoloFlat",
      "address": "2 Geebung St, POLO FLAT NSW 2630",
      "location": {
        "latitude": -36.224727,
        "longitude": 149.147857
      }
    },
    {
      "brand": "Liberty",
      "code": "2261",
      "name": "Liberty Broadwater",
      "address": "7-9 Pacific Hwy, BROADWATER NSW 2472",
      "location": {
        "latitude": -29.019988,
        "longitude": 153.423854
      }
    },
    {
      "brand": "Caltex",
      "code": "2262",
      "name": "Caltex Armidale",
      "address": "142 Marsh St, ARMIDALE NSW 2350",
      "location": {
        "latitude": -30.517087,
        "longitude": 151.667591
      }
    },
    {
      "brand": "Caltex",
      "code": "2263",
      "name": "Caltex Wyoming",
      "address": "465 Pacific Hwy, WYOMING NSW 2250",
      "location": {
        "latitude": -33.409462,
        "longitude": 151.349979
      }
    },
    {
      "brand": "Independent",
      "code": "2264",
      "name": "Long Jetty Servo",
      "address": "326 The Entrance Rd, LONG JETTY NSW 2261",
      "location": {
        "latitude": -33.35899,
        "longitude": 151.484799
      }
    },
    {
      "brand": "Independent",
      "code": "2265",
      "name": "Oasis Tuncurry",
      "address": "186 The Lakes Way, TUNCURRY NSW 2428",
      "location": {
        "latitude": -32.165452,
        "longitude": 152.493274
      }
    },
    {
      "brand": "Metro Fuel",
      "code": "2266",
      "name": "Metro Petroleum Bathurst",
      "address": "45 Bant St, SOUTH BATHURST NSW 2795",
      "location": {
        "latitude": -33.431038,
        "longitude": 149.578565
      }
    },
    {
      "brand": "Independent",
      "code": "2268",
      "name": "Summers Oxley Vale Takeaway & Superette",
      "address": "171 Manilla Rd, OXLEY VALE NSW 2340",
      "location": {
        "latitude": -31.057689,
        "longitude": 150.895119
      }
    },
    {
      "brand": "Liberty",
      "code": "2270",
      "name": "Whiporie General Store",
      "address": "5351 Way, WHIPORIE NSW 2469",
      "location": {
        "latitude": -29.282513,
        "longitude": 152.989008
      }
    },
    {
      "brand": "Independent",
      "code": "2271",
      "name": "Vacy General Store and LPO",
      "address": "803 Gresford Rd, VACY NSW 2421",
      "location": {
        "latitude": -32.540953,
        "longitude": 151.576556
      }
    },
    {
      "brand": "Independent",
      "code": "2272",
      "name": "Woodville General Store",
      "address": "229 Clarence Town Rd, WOODVILLE NSW 2321",
      "location": {
        "latitude": -32.676232,
        "longitude": 151.609444
      }
    },
    {
      "brand": "BP",
      "code": "2273",
      "name": "BP Roadhouse Murrurundi",
      "address": "3-5 Mayne Street, MURRURUNDI NSW 2338",
      "location": {
        "latitude": -31.765821,
        "longitude": 150.842704
      }
    },
    {
      "brand": "BP",
      "code": "2274",
      "name": "BP Wardell",
      "address": "32 Fitzroy St, WARDELL NSW 2477",
      "location": {
        "latitude": -28.95026,
        "longitude": 153.465738
      }
    },
    {
      "brand": "Independent",
      "code": "2276",
      "name": "Telarah Fuels",
      "address": "17 South St, TELARAH NSW 2320",
      "location": {
        "latitude": -32.72848,
        "longitude": 151.535643
      }
    },
    {
      "brand": "Puma Energy",
      "code": "2277",
      "name": "Lawrence General & Liquor Store",
      "address": "1 Richmond St, LAWRENCE NSW 2460",
      "location": {
        "latitude": -29.499669,
        "longitude": 153.100149
      }
    },
    {
      "brand": "United",
      "code": "2278",
      "name": "Drake General Store",
      "address": "7717 Bruxner Hwy, DRAKE VILLAGE NSW 2469",
      "location": {
        "latitude": -28.927369,
        "longitude": 152.375011
      }
    },
    {
      "brand": "Metro Fuel",
      "code": "2279",
      "name": "Metro Petroleum Islington",
      "address": "144 Maitland Rd, ISLINGTON NSW 2296",
      "location": {
        "latitude": -32.915103,
        "longitude": 151.74796
      }
    },
    {
      "brand": "Independent",
      "code": "2280",
      "name": "Emmdale Roadhouse",
      "address": "15891 Barrier Highway, COBAR NSW 2835",
      "location": {
        "latitude": -31.653308,
        "longitude": 144.268416
      }
    },
    {
      "brand": "Independent",
      "code": "2284",
      "name": "Bates General Store",
      "address": "2 Bate St, CENTRAL TILBA NSW 2546",
      "location": {
        "latitude": -36.313075,
        "longitude": 150.075003
      }
    },
    {
      "brand": "7-Eleven",
      "code": "2285",
      "name": "7-Eleven Lithgow",
      "address": "1131 Great Western Hwy, LITHGOW NSW 2790",
      "location": {
        "latitude": -33.479907,
        "longitude": 150.13677
      }
    },
    {
      "brand": "7-Eleven",
      "code": "2286",
      "name": "7-Eleven Gateshead",
      "address": "13-15 Pacific Highway, GATESHEAD NSW 2290",
      "location": {
        "latitude": -32.987353,
        "longitude": 151.69179
      }
    },
    {
      "brand": "Westside",
      "code": "2288",
      "name": "Westside Petroleum Mount Austin",
      "address": "2 Ceduna Street, MOUNT AUSTIN NSW 2650",
      "location": {
        "latitude": -35.13797,
        "longitude": 147.35773
      }
    },
    {
      "brand": "Metro Fuel",
      "code": "2289",
      "name": "Metro Bellbird",
      "address": "380 Wollombi Rd, BELLBIRD NSW 2325",
      "location": {
        "latitude": -32.854262,
        "longitude": 151.324674
      }
    },
    {
      "brand": "Metro Fuel",
      "code": "2290",
      "name": "The Gullie Roadhouse",
      "address": "The Gullie Store 2356 Sturt Hwy, COLLINGULLIE NSW 2650",
      "location": {
        "latitude": -35.087997,
        "longitude": 147.128149
      }
    },
    {
      "brand": "Metro Fuel",
      "code": "2291",
      "name": "Metro Faulconbridge",
      "address": "680 Great Western Hwy, FAULCONBRIDGE NSW 2776",
      "location": {
        "latitude": -33.705479,
        "longitude": 150.528532
      }
    },
    {
      "brand": "Caltex",
      "code": "2292",
      "name": "Caltex Mittagong",
      "address": "115 Main St, MITTAGONG NSW 2575",
      "location": {
        "latitude": -34.450278,
        "longitude": 150.445145
      }
    },
    {
      "brand": "Independent",
      "code": "2293",
      "name": "Kanwal Service Station",
      "address": "68 Craigie Ave, KANWAL NSW 2259",
      "location": {
        "latitude": -33.263048,
        "longitude": 151.48239
      }
    },
    {
      "brand": "Caltex",
      "code": "2294",
      "name": "Caltex East Ballina",
      "address": "30 Links Ave, EAST BALLINA NSW 2478",
      "location": {
        "latitude": -28.850083,
        "longitude": 153.582929
      }
    },
    {
      "brand": "Independent",
      "code": "2295",
      "name": "Tabulam Rural Agents",
      "address": "8611 Bruxner Hwy, TABULAM NSW 2469",
      "location": {
        "latitude": -28.887485,
        "longitude": 152.568115
      }
    },
    {
      "brand": "BP",
      "code": "2296",
      "name": "BP Glen Innes",
      "address": "205 Ferguson St, GLEN INNES NSW 2370",
      "location": {
        "latitude": -29.734366,
        "longitude": 151.728904
      }
    },
    {
      "brand": "Shell",
      "code": "2297",
      "name": "Shell Tolland",
      "address": "229 Bourke St, TOLLAND NSW 2650",
      "location": {
        "latitude": -35.142807,
        "longitude": 147.351321
      }
    },
    {
      "brand": "Independent",
      "code": "2298",
      "name": "Nicholson Petroleum",
      "address": "11 Lower Rankin St, FORBES NSW 2871",
      "location": {
        "latitude": -33.382469,
        "longitude": 148.011318
      }
    },
    {
      "brand": "Caltex",
      "code": "2300",
      "name": "Reel (Taralga) Pty Ltd",
      "address": "58 Bunnaby St, TARALGA NSW 2580",
      "location": {
        "latitude": -34.405792,
        "longitude": 149.819043
      }
    },
    {
      "brand": "Metro Fuel",
      "code": "2301",
      "name": "Metro South Hurstville",
      "address": "930 King Georges Road South, HURSTVILLE NSW 2221",
      "location": {
        "latitude": -33.981173,
        "longitude": 151.1084
      }
    },
    {
      "brand": "Caltex",
      "code": "2302",
      "name": "Caltex Banksmeadow",
      "address": "1-3 Penrhyn Rd, BANKSMEADOW NSW 2019",
      "location": {
        "latitude": -33.963415,
        "longitude": 151.215444
      }
    },
    {
      "brand": "Caltex",
      "code": "2303",
      "name": "Caltex Dubbo North",
      "address": "Lot 51 Bourke Street, DUBBO NORTH NSW 2830",
      "location": {
        "latitude": -32.243421,
        "longitude": 148.609224
      }
    },
    {
      "brand": "Caltex",
      "code": "2305",
      "name": "Caltex Strathfield South",
      "address": "600 Liverpool Rd, STRATHFIELD SOUTH NSW 2136",
      "location": {
        "latitude": -33.888188,
        "longitude": 151.074621
      }
    },
    {
      "brand": "BP",
      "code": "2306",
      "name": "BP Narellan",
      "address": "271 Camden Valley Way, NARELLAN NSW 2567",
      "location": {
        "latitude": -34.041804,
        "longitude": 150.730913
      }
    },
    {
      "brand": "Liberty",
      "code": "2307",
      "name": "Wilcannia Roadhouse Grahams Motel",
      "address": "2 Myers Street, WILCANNIA NSW 2880",
      "location": {
        "latitude": -31.55876,
        "longitude": 143.377979
      }
    },
    {
      "brand": "Metro Fuel",
      "code": "2310",
      "name": "Metro Petroleum Temora",
      "address": "90 Victoria St, TEMORA NSW 2666",
      "location": {
        "latitude": -34.448816,
        "longitude": 147.53523
      }
    },
    {
      "brand": "Caltex",
      "code": "2311",
      "name": "Caltex Port Macquarie",
      "address": "12-14 Bolwarra Rd, PORT MACQUARIE NSW 2444",
      "location": {
        "latitude": -31.450165,
        "longitude": 152.885319
      }
    },
    {
      "brand": "Caltex",
      "code": "2312",
      "name": "Caltex Cambridge",
      "address": "Lot 6 Star Court, CAMBRIDGE PARK NSW 2747",
      "location": {
        "latitude": -33.740603,
        "longitude": 150.71723
      }
    },
    {
      "brand": "Metro Fuel",
      "code": "2313",
      "name": "Metro Petroleum Cowra",
      "address": "1 Mulyan St, COWRA NSW 2794",
      "location": {
        "latitude": -33.828209,
        "longitude": 148.683139
      }
    },
    {
      "brand": "BP",
      "code": "2314",
      "name": "Junction Hill Family Store",
      "address": "5 Casino Rd, JUNCTION HILL NSW 2460",
      "location": {
        "latitude": -29.64485,
        "longitude": 152.926731
      }
    },
    {
      "brand": "Caltex",
      "code": "2315",
      "name": "Coombes Transport",
      "address": "1 Perry Street, MENINDEE NSW 2879",
      "location": {
        "latitude": -32.392395,
        "longitude": 142.4175
      }
    },
    {
      "brand": "BP",
      "code": "2316",
      "name": "BP Aberdare",
      "address": "81 Aberdare Rd, ABERDARE NSW 2325",
      "location": {
        "latitude": -32.843701,
        "longitude": 151.374427
      }
    },
    {
      "brand": "Independent",
      "code": "2317",
      "name": "Big4 Wallaga Lake Holiday Park",
      "address": "186-188 Wallaga Lake Rd, WALLAGA LAKE NSW 2546",
      "location": {
        "latitude": -36.383046,
        "longitude": 150.070847
      }
    },
    {
      "brand": "Westside",
      "code": "2324",
      "name": "Westside Petroleum Oberon",
      "address": "1 Horace St, OBERON NSW 2787",
      "location": {
        "latitude": -33.698365,
        "longitude": 149.859187
      }
    },
    {
      "brand": "Westside",
      "code": "2325",
      "name": "Westside Petroleum Lidcombe",
      "address": "32 Joseph St, LIDCOMBE NSW 2141",
      "location": {
        "latitude": -33.864896,
        "longitude": 151.043259
      }
    },
    {
      "brand": "Coles Express",
      "code": "1",
      "name": "Coles Express Coffs Harbour",
      "address": "208-212 Pacific Hwy North, Coffs Harbour NSW 2450",
      "location": {
        "latitude": -30.286083,
        "longitude": 153.124146
      }
    },
    {
      "brand": "Coles Express",
      "code": "2",
      "name": "Coles Express Glendale",
      "address": "593 Main Rd, Glendale NSW 2285",
      "location": {
        "latitude": -32.927065,
        "longitude": 151.637938
      }
    },
    {
      "brand": "Coles Express",
      "code": "3",
      "name": "Coles Express Oyster Bay",
      "address": "26-28 Georges River Rd (Cnr Carvers Rd), Oyster Bay NSW 2225",
      "location": {
        "latitude": -34.00934,
        "longitude": 151.07548
      }
    },
    {
      "brand": "Coles Express",
      "code": "4",
      "name": "Coles Express Tamworth",
      "address": "251-253 Goonoo Goonoo Rd, Tamworth NSW 2340",
      "location": {
        "latitude": -31.111899,
        "longitude": 150.922823
      }
    },
    {
      "brand": "Coles Express",
      "code": "5",
      "name": "Coles Express Bulli",
      "address": "279-287 Princes Highway, Bulli NSW 2516",
      "location": {
        "latitude": -34.336559,
        "longitude": 150.912153
      }
    },
    {
      "brand": "Coles Express",
      "code": "6",
      "name": "Coles Express Mudgee",
      "address": "47 Church St (Cnr Mortimer St), Mudgee NSW 2850",
      "location": {
        "latitude": -32.593538,
        "longitude": 149.588282
      }
    },
    {
      "brand": "Coles Express",
      "code": "7",
      "name": "Coles Express Tamworth West",
      "address": "147-149 Bridge St, Tamworth West NSW 2340",
      "location": {
        "latitude": -31.094987,
        "longitude": 150.911999
      }
    },
    {
      "brand": "Coles Express",
      "code": "8",
      "name": "Coles Express Greystanes",
      "address": "Merrylands Road & Braeside St, Greystanes NSW 2145",
      "location": {
        "latitude": -33.829525,
        "longitude": 150.952819
      }
    },
    {
      "brand": "Coles Express",
      "code": "9",
      "name": "Coles Express Baulkham Hills",
      "address": "363 Windsor Rd (Cnr Olive St), Baulkham Hills NSW 2153",
      "location": {
        "latitude": -33.760143,
        "longitude": 150.99128
      }
    },
    {
      "brand": "Coles Express",
      "code": "10",
      "name": "Coles Express Port Macquarie",
      "address": "Cnr Gordan & Hollingsworth Sts, Port Macquarie NSW 2444",
      "location": {
        "latitude": -31.434366,
        "longitude": 152.904685
      }
    },
    {
      "brand": "Coles Express",
      "code": "11",
      "name": "Coles Express Corrimal",
      "address": "269-275 Princes Highway, Corrimal NSW 2518",
      "location": {
        "latitude": -34.374407,
        "longitude": 150.896376
      }
    },
    {
      "brand": "Coles Express",
      "code": "12",
      "name": "Coles Express Canley Vale",
      "address": "65-99 Hume Highway, Canley Vale NSW 2166",
      "location": {
        "latitude": -33.893006,
        "longitude": 150.960593
      }
    },
    {
      "brand": "Coles Express",
      "code": "13",
      "name": "Coles Express Wyalong",
      "address": "Mid Western Hwy & Nicholson Lane, Wyalong NSW 2671",
      "location": {
        "latitude": -33.925413,
        "longitude": 147.256084
      }
    },
    {
      "brand": "Coles Express",
      "code": "14",
      "name": "Coles Express Taren Point",
      "address": "99 Parraweena Rd (Cnr Taren Point Rd), Miranda NSW 2228",
      "location": {
        "latitude": -34.026377,
        "longitude": 151.120108
      }
    },
    {
      "brand": "BP",
      "code": "15",
      "name": "BP Connect Cronulla",
      "address": "Cnr Wilbur & Kingsway Streets, Cronulla NSW 2230",
      "location": {
        "latitude": -34.050956,
        "longitude": 151.150759
      }
    },
    {
      "brand": "BP",
      "code": "16",
      "name": "BP Connect Eagle Vale",
      "address": "Cnr Eagle Vale Dve & Gould Rd, Eagle Vale NSW 2558",
      "location": {
        "latitude": -34.031183,
        "longitude": 150.816282
      }
    },
    {
      "brand": "BP",
      "code": "17",
      "name": "BP Connect Glendenning",
      "address": "646 Richmond Rd, Glendenning NSW 2761",
      "location": {
        "latitude": -33.73762,
        "longitude": 150.853221
      }
    },
    {
      "brand": "Coles Express",
      "code": "18",
      "name": "Coles Express St Clair",
      "address": "247 Banks Drive (Cnr Mamre Rd), St Clair NSW 2759",
      "location": {
        "latitude": -33.788333,
        "longitude": 150.771411
      }
    },
    {
      "brand": "Coles Express",
      "code": "19",
      "name": "Coles Express Singleton",
      "address": "69-73 George St, Singleton NSW 2330",
      "location": {
        "latitude": -32.5629,
        "longitude": 151.175536
      }
    },
    {
      "brand": "Coles Express",
      "code": "20",
      "name": "Coles Express Emerald Beach",
      "address": "1140-1140A Solitary Islands Way, Emerald Beach NSW 2456",
      "location": {
        "latitude": -30.16434,
        "longitude": 153.18148
      }
    },
    {
      "brand": "Coles Express",
      "code": "21",
      "name": "Coles Express Eastern Creek",
      "address": "611 Great Western Hwy (Cnr Brabham Drv), Eastern Creek NSW 2766",
      "location": {
        "latitude": -33.792159,
        "longitude": 150.871489
      }
    },
    {
      "brand": "Coles Express",
      "code": "22",
      "name": "Coles Express Gorokan",
      "address": "67 Wallarah Rd (Cnr Edith St), Gorokan NSW 2263",
      "location": {
        "latitude": -33.25654,
        "longitude": 151.507969
      }
    },
    {
      "brand": "Coles Express",
      "code": "23",
      "name": "Coles Express Doyalson North",
      "address": "260 Pacific Hwy (Cnr Basford Road), Doyalson North NSW 2259",
      "location": {
        "latitude": -33.186301,
        "longitude": 151.548878
      }
    },
    {
      "brand": "Coles Express",
      "code": "24",
      "name": "Coles Express Woy Woy",
      "address": "50-52 Ocean Beach Rd (Cnr Rawson St), Woy Woy NSW 2256",
      "location": {
        "latitude": -33.493905,
        "longitude": 151.320693
      }
    },
    {
      "brand": "Coles Express",
      "code": "25",
      "name": "Coles Express Pennant Hills",
      "address": "369-371 Pennant Hills Rd, Pennant Hills NSW 2120",
      "location": {
        "latitude": -33.7387,
        "longitude": 151.073646
      }
    },
    {
      "brand": "Coles Express",
      "code": "26",
      "name": "Coles Express Gilgandra",
      "address": "Portion 101 Newell Highway (Cnr Tooraweenah Road), Gilgandra NSW 2827",
      "location": {
        "latitude": -31.703093,
        "longitude": 148.678759
      }
    },
    {
      "brand": "Coles Express",
      "code": "27",
      "name": "Coles Express Erina",
      "address": "211 The Entrance Rd (Cnr Bonnal Rd), Erina NSW 2250",
      "location": {
        "latitude": -33.435578,
        "longitude": 151.385108
      }
    },
    {
      "brand": "Coles Express",
      "code": "28",
      "name": "Coles Express Scone",
      "address": "91-93 Kelly St, Scone NSW 2337",
      "location": {
        "latitude": -32.047197,
        "longitude": 150.867881
      }
    },
    {
      "brand": "Coles Express",
      "code": "29",
      "name": "Coles Express Mittagong",
      "address": "Old Hume Hwy (Cnr Balaclava St), Mittagong NSW 2575",
      "location": {
        "latitude": -34.439,
        "longitude": 150.471869
      }
    },
    {
      "brand": "Coles Express",
      "code": "30",
      "name": "Coles Express Dubbo",
      "address": "Whylandra St & Victoria St, Dubbo NSW 2830",
      "location": {
        "latitude": -32.247549,
        "longitude": 148.593317
      }
    },
    {
      "brand": "Coles Express",
      "code": "31",
      "name": "Coles Express Jamisontown",
      "address": "Mulgoa Road & Wolseley Road, Jamisontown NSW 2750",
      "location": {
        "latitude": -33.770347,
        "longitude": 150.674028
      }
    },
    {
      "brand": "Coles Express",
      "code": "33",
      "name": "Coles Express Wauchope",
      "address": "64 High Street, Wauchope NSW 2446",
      "location": {
        "latitude": -31.457565,
        "longitude": 152.731699
      }
    },
    {
      "brand": "Coles Express",
      "code": "34",
      "name": "Coles Express Chatswood",
      "address": "877-879 Pacific Hwy, Chatswood NSW 2067",
      "location": {
        "latitude": -33.791717,
        "longitude": 151.180472
      }
    },
    {
      "brand": "Coles Express",
      "code": "35",
      "name": "Coles Express Parklea",
      "address": "484 Sunnyholt Road, Parklea NSW 2768",
      "location": {
        "latitude": -33.729297,
        "longitude": 150.921811
      }
    },
    {
      "brand": "Coles Express",
      "code": "36",
      "name": "Coles Express Brighton-Le-Sands",
      "address": "2-6 General Holmes Drive, Brighton-Le-Sands NSW 2216",
      "location": {
        "latitude": -33.957809,
        "longitude": 151.15748
      }
    },
    {
      "brand": "Coles Express",
      "code": "37",
      "name": "Coles Express Toronto",
      "address": "133-137 Cary St, Toronto NSW 2283",
      "location": {
        "latitude": -33.012896,
        "longitude": 151.592875
      }
    },
    {
      "brand": "Coles Express",
      "code": "38",
      "name": "Coles Express Ulladulla",
      "address": "153 Princes Highway, Ulladulla NSW 2539",
      "location": {
        "latitude": -35.362883,
        "longitude": 150.472719
      }
    },
    {
      "brand": "Coles Express",
      "code": "39",
      "name": "Coles Express Sutton Forest",
      "address": "13125 Hume Highway (Cnr Sally Corner Rd), Sutton Forest NSW 2577",
      "location": {
        "latitude": -34.607743,
        "longitude": 150.228156
      }
    },
    {
      "brand": "Coles Express",
      "code": "40",
      "name": "Coles Express Oak Flats",
      "address": "Lot 2 Lake Entrance Road, Oak Flats NSW 2529",
      "location": {
        "latitude": -34.563166,
        "longitude": 150.831516
      }
    },
    {
      "brand": "Coles Express",
      "code": "41",
      "name": "Coles Express Kincumber",
      "address": "Avoca Dr & Bungoona St, Kincumber NSW 2251",
      "location": {
        "latitude": -33.467789,
        "longitude": 151.383804
      }
    },
    {
      "brand": "Coles Express",
      "code": "42",
      "name": "Coles Express Sutton Forest",
      "address": "13124 Hume Highway, Sutton Forest NSW 2577",
      "location": {
        "latitude": -34.607616,
        "longitude": 150.227232
      }
    },
    {
      "brand": "Coles Express",
      "code": "43",
      "name": "Coles Express Wetherill Park",
      "address": "37  Elizabeth St (Cnr Victoria  St), Wetherill Park NSW 2164",
      "location": {
        "latitude": -33.845806,
        "longitude": 150.899637
      }
    },
    {
      "brand": "Coles Express",
      "code": "44",
      "name": "Coles Express Berkshire Park",
      "address": "746-752 Richmond Road, Berkshire Park NSW 2765",
      "location": {
        "latitude": -33.664575,
        "longitude": 150.799764
      }
    },
    {
      "brand": "Coles Express",
      "code": "45",
      "name": "Coles Express Strathfield South",
      "address": "630-634 Liverpool Road, Strathfield South NSW 2136",
      "location": {
        "latitude": -33.88688,
        "longitude": 151.071135
      }
    },
    {
      "brand": "Coles Express",
      "code": "46",
      "name": "Coles Express Merewether",
      "address": "87 Llewellyn St (Cnr Glebe Rd), Merewether NSW 2291",
      "location": {
        "latitude": -32.938146,
        "longitude": 151.749567
      }
    },
    {
      "brand": "Coles Express",
      "code": "47",
      "name": "Coles Express Carlton",
      "address": "277-281 Princes Highway, Carlton NSW 2218",
      "location": {
        "latitude": -33.974858,
        "longitude": 151.127273
      }
    },
    {
      "brand": "Coles Express",
      "code": "48",
      "name": "Coles Express Dural",
      "address": "592-596 Old Northern Rd, Dural NSW 2158",
      "location": {
        "latitude": -33.694281,
        "longitude": 151.031261
      }
    },
    {
      "brand": "Coles Express",
      "code": "49",
      "name": "Coles Express Cabramatta",
      "address": "218 John St (Cnr Cumberland Hwy), Cabramatta NSW 2166",
      "location": {
        "latitude": -33.893375,
        "longitude": 150.922094
      }
    },
    {
      "brand": "Coles Express",
      "code": "50",
      "name": "Coles Express Camden",
      "address": "273 Old Hume Highway, Camden NSW 2570",
      "location": {
        "latitude": -34.086627,
        "longitude": 150.694551
      }
    },
    {
      "brand": "Coles Express",
      "code": "51",
      "name": "Coles Express Five Dock",
      "address": "213-253 Parramatta Rd & Walker St, Five Dock NSW 2046",
      "location": {
        "latitude": -33.870106,
        "longitude": 151.115104
      }
    },
    {
      "brand": "Coles Express",
      "code": "52",
      "name": "Coles Express Marsfield",
      "address": "189 Epping Rd & Culloden Rd, Marsfield NSW 2122",
      "location": {
        "latitude": -33.775212,
        "longitude": 151.105289
      }
    },
    {
      "brand": "Coles Express",
      "code": "53",
      "name": "Coles Express Deniliquin",
      "address": "336 Victoria Street, Deniliquin NSW 2710",
      "location": {
        "latitude": -35.523731,
        "longitude": 144.980729
      }
    },
    {
      "brand": "Coles Express",
      "code": "54",
      "name": "Coles Express Cessnock",
      "address": "183 Vincent St, Cessnock NSW 2325",
      "location": {
        "latitude": -32.838322,
        "longitude": 151.355439
      }
    },
    {
      "brand": "Coles Express",
      "code": "55",
      "name": "Coles Express Guildford",
      "address": "295 Woodville Rd, Guildford NSW 2161",
      "location": {
        "latitude": -33.850752,
        "longitude": 150.996951
      }
    },
    {
      "brand": "Coles Express",
      "code": "56",
      "name": "Coles Express Inverell",
      "address": "176 Otho St, Inverell NSW 2360",
      "location": {
        "latitude": -29.778219,
        "longitude": 151.115549
      }
    },
    {
      "brand": "Coles Express",
      "code": "57",
      "name": "Coles Express Tocumwal",
      "address": "Dean & Hill Streets, Tocumwal NSW 2714",
      "location": {
        "latitude": -35.808364,
        "longitude": 145.559605
      }
    },
    {
      "brand": "Coles Express",
      "code": "58",
      "name": "Coles Express South Hurstville",
      "address": "835 King Georges Road, South Hurstville NSW 2221",
      "location": {
        "latitude": -33.978745,
        "longitude": 151.105526
      }
    },
    {
      "brand": "Coles Express",
      "code": "59",
      "name": "Coles Express Ramsgate",
      "address": "274-276 Grand Parade (Cnr Ramsgate Rd), Ramsgate NSW 2217",
      "location": {
        "latitude": -33.985745,
        "longitude": 151.147385
      }
    },
    {
      "brand": "Coles Express",
      "code": "60",
      "name": "Coles Express Lawson",
      "address": "311 Great Western Highway, Lawson NSW 2783",
      "location": {
        "latitude": -33.721927,
        "longitude": 150.426038
      }
    },
    {
      "brand": "Coles Express",
      "code": "61",
      "name": "Coles Express Ultimo",
      "address": "387-427 Wattle (Cnr Kelly St), Ultimo NSW 2007",
      "location": {
        "latitude": -33.8816,
        "longitude": 151.197168
      }
    },
    {
      "brand": "Coles Express",
      "code": "62",
      "name": "Coles Express Ryde",
      "address": "45 Lane Cove Rd & Myra Ave, Ryde NSW 2112",
      "location": {
        "latitude": -33.807231,
        "longitude": 151.109825
      }
    },
    {
      "brand": "Coles Express",
      "code": "63",
      "name": "Coles Express Hornsby",
      "address": "194-206 Pacific Hwy, Hornsby NSW 2077",
      "location": {
        "latitude": -33.7072,
        "longitude": 151.099147
      }
    },
    {
      "brand": "Coles Express",
      "code": "64",
      "name": "Coles Express Narrandera",
      "address": "Audley St & Caddell St, Narrandera NSW 2700",
      "location": {
        "latitude": -34.747865,
        "longitude": 146.550362
      }
    },
    {
      "brand": "Coles Express",
      "code": "65",
      "name": "Coles Express Bass Hill",
      "address": "884-888 Hume Hwy (Cnr Strickland St), Bass Hill NSW 2197",
      "location": {
        "latitude": -33.89964,
        "longitude": 150.997487
      }
    },
    {
      "brand": "Coles Express",
      "code": "66",
      "name": "Coles Express Belmont",
      "address": "504 Pacific Hwy (Cnr Maude St), Belmont NSW 2280",
      "location": {
        "latitude": -33.03322,
        "longitude": 151.660617
      }
    },
    {
      "brand": "Coles Express",
      "code": "67",
      "name": "Coles Express Tumut",
      "address": "168-170 Snowy Mountains Hwy, Tumut NSW 2720",
      "location": {
        "latitude": -35.302559,
        "longitude": 148.202254
      }
    },
    {
      "brand": "Coles Express",
      "code": "68",
      "name": "Coles Express Wollongong West",
      "address": "434 Crown St, Wollongong West NSW 2500",
      "location": {
        "latitude": -34.425147,
        "longitude": 150.873512
      }
    },
    {
      "brand": "Coles Express",
      "code": "69",
      "name": "Coles Express Drummoyne",
      "address": "38-46 Victoria Rd, Drummoyne NSW 2047",
      "location": {
        "latitude": -33.855759,
        "longitude": 151.159307
      }
    },
    {
      "brand": "Coles Express",
      "code": "70",
      "name": "Coles Express Yallah",
      "address": "1 Macquarie Place Haywards Bay, Yallah NSW 2530",
      "location": {
        "latitude": -34.541247,
        "longitude": 150.785615
      }
    },
    {
      "brand": "Coles Express",
      "code": "71",
      "name": "Coles Express Carlingford",
      "address": "286-288 Pennant Hills Rd (Cnr Adderton Rd), Carlingford NSW 2118",
      "location": {
        "latitude": -33.784856,
        "longitude": 151.043604
      }
    },
    {
      "brand": "Coles Express",
      "code": "72",
      "name": "Coles Express Moss Vale",
      "address": "571 Argyle St (Cnr Yarrawa Rd), Moss Vale NSW 2577",
      "location": {
        "latitude": -34.553424,
        "longitude": 150.364548
      }
    },
    {
      "brand": "Coles Express",
      "code": "73",
      "name": "Coles Express Smithfield",
      "address": "678 The Horsley Drv (Cnr Cumberland Hwy), Smithfield NSW 2164",
      "location": {
        "latitude": -33.85369,
        "longitude": 150.940106
      }
    },
    {
      "brand": "7-Eleven",
      "code": "74",
      "name": "7-Eleven Artarmon",
      "address": "477 Pacific Highway, Artarmon NSW 2064",
      "location": {
        "latitude": -33.810521,
        "longitude": 151.177429
      }
    },
    {
      "brand": "7-Eleven",
      "code": "75",
      "name": "7-Eleven Kincumber",
      "address": "28 - 30 Avoca Drive, Kincumber NSW 2251",
      "location": {
        "latitude": -33.467858,
        "longitude": 151.38063
      }
    },
    {
      "brand": "7-Eleven",
      "code": "76",
      "name": "7-Eleven Fairfield",
      "address": "320 Polding Street, Fairfield NSW 2165",
      "location": {
        "latitude": -33.86357,
        "longitude": 150.95079
      }
    },
    {
      "brand": "Coles Express",
      "code": "77",
      "name": "Coles Express Berowra",
      "address": "955 Pacific Highway (Cnr Yallambee Rd), Berowra NSW 2081",
      "location": {
        "latitude": -33.627973,
        "longitude": 151.147917
      }
    },
    {
      "brand": "Coles Express",
      "code": "78",
      "name": "Coles Express Ourimbah",
      "address": "78 Pacific Highway (Cnr Burns Rd), Ourimbah NSW 2258",
      "location": {
        "latitude": -33.346821,
        "longitude": 151.370975
      }
    },
    {
      "brand": "Coles Express",
      "code": "79",
      "name": "Coles Express Coonabarabran",
      "address": "2-6 Johns St, Coonabarabran NSW 2357",
      "location": {
        "latitude": -31.277055,
        "longitude": 149.278375
      }
    },
    {
      "brand": "Coles Express",
      "code": "80",
      "name": "Coles Express Padstow",
      "address": "19 Davies Road, Padstow NSW 2211",
      "location": {
        "latitude": -33.948435,
        "longitude": 151.037641
      }
    },
    {
      "brand": "Coles Express",
      "code": "81",
      "name": "Coles Express Lane Cove",
      "address": "250 Burns Bay Road, Lane Cove NSW 2066",
      "location": {
        "latitude": -33.81718,
        "longitude": 151.151481
      }
    },
    {
      "brand": "Coles Express",
      "code": "82",
      "name": "Coles Express Faulconbridge",
      "address": "575-581 Great Western Highway, Faulconbridge NSW 2776",
      "location": {
        "latitude": -33.694145,
        "longitude": 150.537347
      }
    },
    {
      "brand": "Coles Express",
      "code": "83",
      "name": "Coles Express Heatherbrae",
      "address": "2137 Pacific Highway, Heatherbrae NSW 2324",
      "location": {
        "latitude": -32.798345,
        "longitude": 151.717716
      }
    },
    {
      "brand": "Coles Express",
      "code": "84",
      "name": "Coles Express Bulahdelah",
      "address": "42 Bulahdelah Way, Bulahdelah NSW 2423",
      "location": {
        "latitude": -32.409505,
        "longitude": 152.211347
      }
    },
    {
      "brand": "Coles Express",
      "code": "86",
      "name": "Coles Express Halfway Creek",
      "address": "4974 Pacific Highway (Cnr Lemon Tree Rd), Halfway Creek NSW 2460",
      "location": {
        "latitude": -29.934898,
        "longitude": 153.094274
      }
    },
    {
      "brand": "Coles Express",
      "code": "88",
      "name": "Coles Express Yagoona",
      "address": "112 Rookwood (Cnr Brunker) Rds, Yagoona NSW 2199",
      "location": {
        "latitude": -33.898673,
        "longitude": 151.037094
      }
    },
    {
      "brand": "Coles Express",
      "code": "89",
      "name": "Coles Express Blaxland",
      "address": "126 Great Western Highway, Blaxland NSW 2774",
      "location": {
        "latitude": -33.745105,
        "longitude": 150.61095
      }
    },
    {
      "brand": "Coles Express",
      "code": "90",
      "name": "Coles Express Wollongong",
      "address": "142-148 Corrimal St, Wollongong NSW 2500",
      "location": {
        "latitude": -34.42874,
        "longitude": 150.898901
      }
    },
    {
      "brand": "Coles Express",
      "code": "91",
      "name": "Coles Express Bathurst",
      "address": "59 Durham Street, Bathurst NSW 2795",
      "location": {
        "latitude": -33.41649,
        "longitude": 149.58434
      }
    },
    {
      "brand": "Coles Express",
      "code": "92",
      "name": "Coles Express Griffith",
      "address": "121 Banna Avenue, Griffith NSW 2680",
      "location": {
        "latitude": -34.288346,
        "longitude": 146.051293
      }
    },
    {
      "brand": "Coles Express",
      "code": "93",
      "name": "Coles Express South Bowenfels",
      "address": "Lot 1 Great Western Highway (Cnr Rydal Rd), South Bowenfels NSW 2790",
      "location": {
        "latitude": -33.505897,
        "longitude": 150.123904
      }
    },
    {
      "brand": "Coles Express",
      "code": "94",
      "name": "Coles Express Kotara",
      "address": "93 Park Avenue, Kotara NSW 2289",
      "location": {
        "latitude": -32.940904,
        "longitude": 151.708827
      }
    },
    {
      "brand": "Coles Express",
      "code": "95",
      "name": "Coles Express Moree",
      "address": "Balo St & Gwydir St, Moree NSW 2400",
      "location": {
        "latitude": -29.461111,
        "longitude": 149.842053
      }
    },
    {
      "brand": "Coles Express",
      "code": "96",
      "name": "Coles Express Goulburn",
      "address": "1-3 Sowerby St, Goulburn NSW 2580",
      "location": {
        "latitude": -34.772916,
        "longitude": 149.691601
      }
    },
    {
      "brand": "Coles Express",
      "code": "97",
      "name": "Coles Express Rouse Hill",
      "address": "43 Panmure Rd (Cnr Windsor Road), Rouse Hill NSW 2155",
      "location": {
        "latitude": -33.683025,
        "longitude": 150.916102
      }
    },
    {
      "brand": "Coles Express",
      "code": "98",
      "name": "Coles Express Colyton",
      "address": "88-90 Great Western Highway, Colyton NSW 2760",
      "location": {
        "latitude": -33.775473,
        "longitude": 150.79533
      }
    },
    {
      "brand": "Coles Express",
      "code": "99",
      "name": "Coles Express Taree",
      "address": "59-63 Victoria Street, Taree NSW 2430",
      "location": {
        "latitude": -31.910559,
        "longitude": 152.465144
      }
    },
    {
      "brand": "Coles Express",
      "code": "100",
      "name": "Coles Express Wattle Grove",
      "address": "115 Heathcote Rd, Wattle Grove NSW 2173",
      "location": {
        "latitude": -33.946408,
        "longitude": 150.946795
      }
    },
    {
      "brand": "Coles Express",
      "code": "101",
      "name": "Coles Express Bexley",
      "address": "306-312 Forest Road (Cnr Fredrick St), Bexley NSW 2205",
      "location": {
        "latitude": -33.945714,
        "longitude": 151.128092
      }
    },
    {
      "brand": "Coles Express",
      "code": "102",
      "name": "Coles Express Hurstville",
      "address": "396-404 Forest Road, Hurstville NSW 2220",
      "location": {
        "latitude": -33.964882,
        "longitude": 151.09907
      }
    },
    {
      "brand": "Coles Express",
      "code": "103",
      "name": "Coles Express Tweed Heads South",
      "address": "71 Minjungbal Dr, Tweed Heads South NSW 2486",
      "location": {
        "latitude": -28.194588,
        "longitude": 153.541981
      }
    },
    {
      "brand": "Coles Express",
      "code": "104",
      "name": "Coles Express Hoxton Park",
      "address": "650-652 Hoxton Park Rd, Hoxton Park NSW 2171",
      "location": {
        "latitude": -33.925298,
        "longitude": 150.849274
      }
    },
    {
      "brand": "Coles Express",
      "code": "105",
      "name": "Coles Express Baulkham Hills",
      "address": "4 Century Circuit, Baulkham Hills NSW 2153",
      "location": {
        "latitude": -33.733555,
        "longitude": 150.963518
      }
    },
    {
      "brand": "Coles Express",
      "code": "106",
      "name": "Coles Express Lismore Heights",
      "address": "426 Ballina Road, Lismore Heights NSW 2480",
      "location": {
        "latitude": -28.810727,
        "longitude": 153.30523
      }
    },
    {
      "brand": "Coles Express",
      "code": "107",
      "name": "Coles Express Lismore",
      "address": "100 Dawson & Magellan Sts, Lismore NSW 2480",
      "location": {
        "latitude": -28.811269,
        "longitude": 153.279937
      }
    },
    {
      "brand": "Coles Express",
      "code": "108",
      "name": "Coles Express Casino",
      "address": "88 Centre St (Cnr Richmond St), Casino NSW 2470",
      "location": {
        "latitude": -28.866373,
        "longitude": 153.045016
      }
    },
    {
      "brand": "Coles Express",
      "code": "109",
      "name": "Coles Express Tweed Heads",
      "address": "34 Wharf St (Cnr Frances St), Tweed Heads NSW 2485",
      "location": {
        "latitude": -28.173842,
        "longitude": 153.543136
      }
    },
    {
      "brand": "Coles Express",
      "code": "110",
      "name": "Coles Express Boggabilla",
      "address": "33351 Newell Highway, Boggabilla NSW 2409",
      "location": {
        "latitude": -28.608783,
        "longitude": 150.351079
      }
    },
    {
      "brand": "Coles Express",
      "code": "111",
      "name": "Coles Express Hastings Point",
      "address": "99 Tweed Coast Rd, Hastings Point NSW 2489",
      "location": {
        "latitude": -28.369171,
        "longitude": 153.5726
      }
    },
    {
      "brand": "Coles Express",
      "code": "112",
      "name": "Coles Express Wetherill Park",
      "address": "1181 The Horsley Drive, Wetherill Park NSW 2164",
      "location": {
        "latitude": -33.849642,
        "longitude": 150.901063
      }
    },
    {
      "brand": "Coles Express",
      "code": "113",
      "name": "Coles Express Alexandria",
      "address": "562-572 Botany Rd, Alexandria NSW 2015",
      "location": {
        "latitude": -33.915767,
        "longitude": 151.200134
      }
    },
    {
      "brand": "Coles Express",
      "code": "114",
      "name": "Coles Express Gymea",
      "address": "470 Princes Hwy (Cnr The Boulevarde), Gymea NSW 2232",
      "location": {
        "latitude": -34.027079,
        "longitude": 151.084243
      }
    },
    {
      "brand": "Coles Express",
      "code": "115",
      "name": "Coles Express Broken Hill",
      "address": "164 William Street, Broken Hill NSW 2880",
      "location": {
        "latitude": -31.951488,
        "longitude": 141.453671
      }
    },
    {
      "brand": "BP",
      "code": "116",
      "name": "BP Connect Heatherbrae",
      "address": "2398 Pacific Highway, Heatherbrae NSW 2324",
      "location": {
        "latitude": -32.783298,
        "longitude": 151.737022
      }
    },
    {
      "brand": "BP",
      "code": "117",
      "name": "BP Connect Kellyville",
      "address": "19-21 Windsor Road, Kellyville NSW 2155",
      "location": {
        "latitude": -33.712817,
        "longitude": 150.95903
      }
    },
    {
      "brand": "BP",
      "code": "118",
      "name": "BP Connect Kennedy Drive",
      "address": "Cnr Kennedy Dve & Ducat St, Tweed Heads NSW 2485",
      "location": {
        "latitude": -28.18605,
        "longitude": 153.526203
      }
    },
    {
      "brand": "Coles Express",
      "code": "119",
      "name": "Coles Express Gundagai",
      "address": "Cnr Hume Highway & Sheahan Drive, Gundagai NSW 2722",
      "location": {
        "latitude": -35.081895,
        "longitude": 148.094073
      }
    },
    {
      "brand": "Coles Express",
      "code": "120",
      "name": "Coles Express South Nowra",
      "address": "190-198 Princess Hwy, South Nowra NSW 2541",
      "location": {
        "latitude": -34.898658,
        "longitude": 150.602457
      }
    },
    {
      "brand": "Coles Express",
      "code": "121",
      "name": "Coles Express Kooragang",
      "address": "130 Cormorant Rd (Po Box 222), Kooragang NSW 2304",
      "location": {
        "latitude": -32.883576,
        "longitude": 151.761947
      }
    },
    {
      "brand": "Coles Express",
      "code": "122",
      "name": "Coles Express Albury",
      "address": "465 Guinea St (Cnr David St), Albury NSW 2640",
      "location": {
        "latitude": -36.074822,
        "longitude": 146.921549
      }
    },
    {
      "brand": "Coles Express",
      "code": "123",
      "name": "Coles Express Lavington",
      "address": "575 Wagga Rd, Lavington NSW 2641",
      "location": {
        "latitude": -36.03665,
        "longitude": 146.963037
      }
    },
    {
      "brand": "Coles Express",
      "code": "124",
      "name": "Coles Express Marsden Park",
      "address": "920 Richmond Rd, Marsden Park NSW 2765",
      "location": {
        "latitude": -33.715721,
        "longitude": 150.842679
      }
    },
    {
      "brand": "Coles Express",
      "code": "125",
      "name": "Coles Express Kingsgrove",
      "address": "137-141 Kingsgrove Road, Kingsgrove NSW 2208",
      "location": {
        "latitude": -33.932785,
        "longitude": 151.099086
      }
    },
    {
      "brand": "Coles Express",
      "code": "126",
      "name": "Coles Express Bega",
      "address": "2-6 Swan St, Bega NSW 2550",
      "location": {
        "latitude": -36.673879,
        "longitude": 149.838173
      }
    },
    {
      "brand": "7-Eleven",
      "code": "127",
      "name": "7-Eleven Belmore",
      "address": "792-794 Canterbury Road Chapel Street, Belmore NSW 2192",
      "location": {
        "latitude": -33.925456,
        "longitude": 151.087072
      }
    },
    {
      "brand": "7-Eleven",
      "code": "128",
      "name": "7-Eleven Pendle Hill",
      "address": "217 Wentworth Avenue (Corner Bungaree Road), Pendle Hill NSW 2145",
      "location": {
        "latitude": -33.80187,
        "longitude": 150.957827
      }
    },
    {
      "brand": "7-Eleven",
      "code": "129",
      "name": "7-Eleven Rockdale",
      "address": "99 Railway Street (Corner Frederick Street), Rockdale NSW 2216",
      "location": {
        "latitude": -33.952566,
        "longitude": 151.135774
      }
    },
    {
      "brand": "7-Eleven",
      "code": "130",
      "name": "7-Eleven Guildford West",
      "address": "534 Guildford Road West (Corner Fowler Road), Guildford West NSW 2161",
      "location": {
        "latitude": -33.851431,
        "longitude": 150.972137
      }
    },
    {
      "brand": "7-Eleven",
      "code": "131",
      "name": "7-Eleven Matraville",
      "address": "515 Bunnerong Road, Matraville NSW 2036",
      "location": {
        "latitude": -33.959419,
        "longitude": 151.231733
      }
    },
    {
      "brand": "7-Eleven",
      "code": "132",
      "name": "7-Eleven Maroubra",
      "address": "1 Meagher Ave (Cnr Malabar Rd) (Repn 9 June'16), Maroubra NSW 2035",
      "location": {
        "latitude": -33.951306,
        "longitude": 151.24905
      }
    },
    {
      "brand": "7-Eleven",
      "code": "133",
      "name": "7-Eleven Merrylands",
      "address": "295-297 Merrylands Road (Corner Windsor Street), Merrylands NSW 2160",
      "location": {
        "latitude": -33.835467,
        "longitude": 150.985311
      }
    },
    {
      "brand": "7-Eleven",
      "code": "134",
      "name": "7-Eleven Hurlstone Park",
      "address": "670 New Canterbury Road (Corner Melford Street), Hurlstone Park NSW 2193",
      "location": {
        "latitude": -33.905043,
        "longitude": 151.130108
      }
    },
    {
      "brand": "7-Eleven",
      "code": "135",
      "name": "7-Eleven Fairfield West",
      "address": "234 Hamilton Road, Fairfield West NSW 2165",
      "location": {
        "latitude": -33.872141,
        "longitude": 150.937268
      }
    },
    {
      "brand": "Coles Express",
      "code": "136",
      "name": "Coles Express Bowral",
      "address": "430 Bong Bong St (Cnr Bowral St), Bowral NSW 2576",
      "location": {
        "latitude": -34.48268,
        "longitude": 150.417354
      }
    },
    {
      "brand": "7-Eleven",
      "code": "137",
      "name": "7-Eleven North Rocks",
      "address": "340 North Rocks Road, North Rocks NSW 2151",
      "location": {
        "latitude": -33.768977,
        "longitude": 151.03069
      }
    },
    {
      "brand": "7-Eleven",
      "code": "138",
      "name": "7-Eleven Five Dock",
      "address": "231-235 Great North Road, Five Dock NSW 2046",
      "location": {
        "latitude": -33.864884,
        "longitude": 151.130003
      }
    },
    {
      "brand": "7-Eleven",
      "code": "139",
      "name": "7-Eleven Enmore",
      "address": "22 Stanmore Road (Corner Fotheringham Street), Enmore NSW 2042",
      "location": {
        "latitude": -33.899206,
        "longitude": 151.170186
      }
    },
    {
      "brand": "7-Eleven",
      "code": "140",
      "name": "7-Eleven Mount Pritchard",
      "address": "352 Elizabeth Drive (Corner Meadow Road), Mount Pritchard NSW 2170",
      "location": {
        "latitude": -33.902707,
        "longitude": 150.896724
      }
    },
    {
      "brand": "7-Eleven",
      "code": "141",
      "name": "7-Eleven Mosman",
      "address": "162A Spit Road (Corner Mitchell Road), Mosman NSW 2088",
      "location": {
        "latitude": -33.817498,
        "longitude": 151.243383
      }
    },
    {
      "brand": "7-Eleven",
      "code": "142",
      "name": "7-Eleven Caringbah",
      "address": "367 The Kingsway (Corner Willarong Road), Caringbah NSW 2229",
      "location": {
        "latitude": -34.039547,
        "longitude": 151.120355
      }
    },
    {
      "brand": "7-Eleven",
      "code": "143",
      "name": "7-Eleven West Wollongong",
      "address": "Corner Crown & Darling Streets, West Wollongong NSW 2500",
      "location": {
        "latitude": -34.425265,
        "longitude": 150.884673
      }
    },
    {
      "brand": "7-Eleven",
      "code": "144",
      "name": "7-Eleven Kingswood",
      "address": "127 Great Western Highway (Corner Morley Avenue), Kingswood NSW 2747",
      "location": {
        "latitude": -33.760042,
        "longitude": 150.725914
      }
    },
    {
      "brand": "7-Eleven",
      "code": "145",
      "name": "7-Eleven Drummoyne",
      "address": "271A Victoria Road, Drummoyne NSW 2047",
      "location": {
        "latitude": -33.84723,
        "longitude": 151.151612
      }
    },
    {
      "brand": "7-Eleven",
      "code": "146",
      "name": "7-Eleven Croydon Park",
      "address": "45 Georges River Road, Croydon Park NSW 2133",
      "location": {
        "latitude": -33.894381,
        "longitude": 151.111446
      }
    },
    {
      "brand": "Coles Express",
      "code": "147",
      "name": "Coles Express Goulburn",
      "address": "90 Cowper St (Cnr Clinton St), Goulburn NSW 2580",
      "location": {
        "latitude": -34.755637,
        "longitude": 149.711462
      }
    },
    {
      "brand": "7-Eleven",
      "code": "148",
      "name": "7-Eleven Penshurst",
      "address": "612 Forest Road, Penshurst NSW 2222",
      "location": {
        "latitude": -33.961504,
        "longitude": 151.079228
      }
    },
    {
      "brand": "7-Eleven",
      "code": "149",
      "name": "7-Eleven Randwick",
      "address": "128 Barker Street, Randwick NSW 2031",
      "location": {
        "latitude": -33.920881,
        "longitude": 151.235608
      }
    },
    {
      "brand": "7-Eleven",
      "code": "150",
      "name": "7-Eleven Heatherbrae",
      "address": "369 Pacific Highway, Heatherbrae NSW 2324",
      "location": {
        "latitude": -32.791312,
        "longitude": 151.725301
      }
    },
    {
      "brand": "7-Eleven",
      "code": "151",
      "name": "7-Eleven Kings Park",
      "address": "363 Vardys Road, Kings Park NSW 2148",
      "location": {
        "latitude": -33.7466,
        "longitude": 150.90688
      }
    },
    {
      "brand": "7-Eleven",
      "code": "152",
      "name": "7-Eleven Lane Cove",
      "address": "203 Burns Bay Road, Lane Cove NSW 2066",
      "location": {
        "latitude": -33.814598,
        "longitude": 151.154353
      }
    },
    {
      "brand": "7-Eleven",
      "code": "153",
      "name": "7-Eleven Moorebank",
      "address": "102 Heathcote Road, Moorebank NSW 2170",
      "location": {
        "latitude": -33.938234,
        "longitude": 150.939649
      }
    },
    {
      "brand": "7-Eleven",
      "code": "154",
      "name": "7-Eleven Mosman",
      "address": "45 Spit Road, Mosman NSW 2088",
      "location": {
        "latitude": -33.823058,
        "longitude": 151.243459
      }
    },
    {
      "brand": "7-Eleven",
      "code": "155",
      "name": "7-Eleven Windsor",
      "address": "12 Hawkesbury Valley Way, Windsor NSW 2756",
      "location": {
        "latitude": -33.611871,
        "longitude": 150.812202
      }
    },
    {
      "brand": "7-Eleven",
      "code": "156",
      "name": "7-Eleven Belmont North",
      "address": "378 Pacific Highway, Belmont North NSW 2280",
      "location": {
        "latitude": -33.022787,
        "longitude": 151.664179
      }
    },
    {
      "brand": "7-Eleven",
      "code": "157",
      "name": "7-Eleven Mayfield",
      "address": "132  Maitland Road, Mayfield NSW 2304",
      "location": {
        "latitude": -32.901704,
        "longitude": 151.741975
      }
    },
    {
      "brand": "Coles Express",
      "code": "158",
      "name": "Coles Express St Helens Park",
      "address": "Lot 201 Appin Road, St Helens Park NSW 2560",
      "location": {
        "latitude": -34.111953,
        "longitude": 150.798563
      }
    },
    {
      "brand": "7-Eleven",
      "code": "159",
      "name": "7-Eleven Bexley",
      "address": "474 Forest Road, Bexley NSW 2207",
      "location": {
        "latitude": -33.951524,
        "longitude": 151.125198
      }
    },
    {
      "brand": "7-Eleven",
      "code": "160",
      "name": "7-Eleven Shellharbour",
      "address": "Corner Shellharbour & Wattle Roads, Shellharbour NSW 2529",
      "location": {
        "latitude": -34.580605,
        "longitude": 150.861141
      }
    },
    {
      "brand": "7-Eleven",
      "code": "161",
      "name": "7-Eleven Riverstone",
      "address": "55 Garfield Road, Riverstone NSW 2765",
      "location": {
        "latitude": -33.678103,
        "longitude": 150.863631
      }
    },
    {
      "brand": "7-Eleven",
      "code": "162",
      "name": "7-Eleven Sutherland",
      "address": "693 Old Princes Highway (Retank Reopens 23 Jun'16), Sutherland NSW 2232",
      "location": {
        "latitude": -34.029795,
        "longitude": 151.058951
      }
    },
    {
      "brand": "7-Eleven",
      "code": "163",
      "name": "7-Eleven Penrith",
      "address": "30 Henry Street, Penrith NSW 2750",
      "location": {
        "latitude": -33.754088,
        "longitude": 150.704558
      }
    },
    {
      "brand": "7-Eleven",
      "code": "164",
      "name": "7-Eleven Narrabeen",
      "address": "1234 Pittwater Road, Narrabeen NSW 2101",
      "location": {
        "latitude": -33.719601,
        "longitude": 151.298272
      }
    },
    {
      "brand": "7-Eleven",
      "code": "165",
      "name": "7-Eleven Arndell Park",
      "address": "180 Reservoir Road, Arndell Park NSW 2148",
      "location": {
        "latitude": -33.796722,
        "longitude": 150.897194
      }
    },
    {
      "brand": "7-Eleven",
      "code": "166",
      "name": "7-Eleven Mount Druitt",
      "address": "Lot 6 Luxford Road, Mount Druitt NSW 2770",
      "location": {
        "latitude": -33.764921,
        "longitude": 150.82627
      }
    },
    {
      "brand": "7-Eleven",
      "code": "167",
      "name": "7-Eleven Carlingford",
      "address": "243 Pennant Hills Road, Carlingford NSW 2118",
      "location": {
        "latitude": -33.782875,
        "longitude": 151.045752
      }
    },
    {
      "brand": "7-Eleven",
      "code": "168",
      "name": "7-Eleven Minchinbury",
      "address": "Lot 3 Great Western Highway (Cnr John Hines Ave), Minchinbury NSW 2770",
      "location": {
        "latitude": -33.778099,
        "longitude": 150.809194
      }
    },
    {
      "brand": "Coles Express",
      "code": "169",
      "name": "Coles Express Killarney Vale",
      "address": "102 - 106 Wyong Road, Killarney Vale NSW 2261",
      "location": {
        "latitude": -33.367288,
        "longitude": 151.46491
      }
    },
    {
      "brand": "7-Eleven",
      "code": "170",
      "name": "7-Eleven Arncliffe",
      "address": "28 Princes Highway, Arncliffe NSW 2205",
      "location": {
        "latitude": -33.934164,
        "longitude": 151.152566
      }
    },
    {
      "brand": "7-Eleven",
      "code": "171",
      "name": "7-Eleven Erina",
      "address": "214 The Entrance Road, Erina NSW 2250",
      "location": {
        "latitude": -33.434942,
        "longitude": 151.387952
      }
    },
    {
      "brand": "7-Eleven",
      "code": "172",
      "name": "7-Eleven Werrington",
      "address": "Lot 122 Dunheved Road, Werrington NSW 2747",
      "location": {
        "latitude": -33.747045,
        "longitude": 150.742768
      }
    },
    {
      "brand": "7-Eleven",
      "code": "173",
      "name": "7-Eleven Petersham",
      "address": "8 - 10 Crystal Street, Petersham NSW 2049",
      "location": {
        "latitude": -33.888671,
        "longitude": 151.158553
      }
    },
    {
      "brand": "7-Eleven",
      "code": "174",
      "name": "7-Eleven Corrimal",
      "address": "138-146 Princes Highway, Corrimal NSW 2518",
      "location": {
        "latitude": -34.369863,
        "longitude": 150.897816
      }
    },
    {
      "brand": "7-Eleven",
      "code": "175",
      "name": "7-Eleven Minto",
      "address": "Lot 1 Ben Lomond Road, Minto NSW 2566",
      "location": {
        "latitude": -34.031634,
        "longitude": 150.847923
      }
    },
    {
      "brand": "7-Eleven",
      "code": "176",
      "name": "7-Eleven Blacktown",
      "address": "62 Walters Road, Blacktown NSW 2148",
      "location": {
        "latitude": -33.775908,
        "longitude": 150.894749
      }
    },
    {
      "brand": "7-Eleven",
      "code": "177",
      "name": "7-Eleven Lisarow",
      "address": "911 Pacific Highway, Lisarow NSW 2250",
      "location": {
        "latitude": -33.385396,
        "longitude": 151.365375
      }
    },
    {
      "brand": "7-Eleven",
      "code": "178",
      "name": "7-Eleven Watanobbi",
      "address": "156 Pacific Highway, Watanobbi NSW 2259",
      "location": {
        "latitude": -33.27436,
        "longitude": 151.429255
      }
    },
    {
      "brand": "7-Eleven",
      "code": "179",
      "name": "7-Eleven Regentville",
      "address": "36 Mulgoa Road, Regentville NSW 2745",
      "location": {
        "latitude": -33.77504,
        "longitude": 150.666023
      }
    },
    {
      "brand": "Coles Express",
      "code": "180",
      "name": "Coles Express Picton",
      "address": "93-99 Argyle Street, Picton NSW 2571",
      "location": {
        "latitude": -34.168556,
        "longitude": 150.611545
      }
    },
    {
      "brand": "7-Eleven",
      "code": "181",
      "name": "7-Eleven Argenton",
      "address": "503 Lake Road, Argenton NSW 2284",
      "location": {
        "latitude": -32.935194,
        "longitude": 151.630728
      }
    },
    {
      "brand": "7-Eleven",
      "code": "182",
      "name": "7-Eleven Emu Plains",
      "address": "49-51 Great Western Highway, Emu Plains NSW 2750",
      "location": {
        "latitude": -33.746491,
        "longitude": 150.676178
      }
    },
    {
      "brand": "7-Eleven",
      "code": "183",
      "name": "7-Eleven Campbelltown",
      "address": "71 Blaxland Road, Campbelltown NSW 2560",
      "location": {
        "latitude": -34.061876,
        "longitude": 150.80945
      }
    },
    {
      "brand": "7-Eleven",
      "code": "184",
      "name": "7-Eleven Castle Hill",
      "address": "255 -257 Old Northern Road, Castle Hill NSW 2154",
      "location": {
        "latitude": -33.734803,
        "longitude": 151.003582
      }
    },
    {
      "brand": "7-Eleven",
      "code": "185",
      "name": "7-Eleven South Hurstville",
      "address": "822 King Georges Road & Joffre St, South Hurstville NSW 2220",
      "location": {
        "latitude": -33.975997,
        "longitude": 151.10364
      }
    },
    {
      "brand": "7-Eleven",
      "code": "186",
      "name": "7-Eleven Georges Hall",
      "address": "Corner Marion Street & 48 Surrey Avenue, Georges Hall NSW 2198",
      "location": {
        "latitude": -33.915626,
        "longitude": 150.997738
      }
    },
    {
      "brand": "7-Eleven",
      "code": "187",
      "name": "7-Eleven Green Point",
      "address": "390 Avoca Drive (Gosford), Green Point NSW 2251",
      "location": {
        "latitude": -33.462598,
        "longitude": 151.363938
      }
    },
    {
      "brand": "7-Eleven",
      "code": "188",
      "name": "7-Eleven Mount Pritchard",
      "address": "464 Cabramatta Road West, Mount Pritchard NSW 2170",
      "location": {
        "latitude": -33.897357,
        "longitude": 150.912907
      }
    },
    {
      "brand": "7-Eleven",
      "code": "189",
      "name": "7-Eleven Carlton",
      "address": "439 Princes Highway (Corner Massey Street), Carlton NSW 2218",
      "location": {
        "latitude": -33.98081,
        "longitude": 151.119076
      }
    },
    {
      "brand": "7-Eleven",
      "code": "190",
      "name": "7-Eleven Ashfield",
      "address": "132 Hume Highway (Corner Victoria Street), Ashfield NSW 2131",
      "location": {
        "latitude": -33.890466,
        "longitude": 151.129597
      }
    },
    {
      "brand": "Coles Express",
      "code": "191",
      "name": "Coles Express Leppington",
      "address": "1443 Camden Valley Way, Leppington NSW 2171",
      "location": {
        "latitude": -33.966367,
        "longitude": 150.815605
      }
    },
    {
      "brand": "7-Eleven",
      "code": "192",
      "name": "7-Eleven Bankstown",
      "address": "180 Stacey & Stanley Streets, Bankstown NSW 2200",
      "location": {
        "latitude": -33.920941,
        "longitude": 151.039191
      }
    },
    {
      "brand": "7-Eleven",
      "code": "193",
      "name": "7-Eleven Casula",
      "address": "2355 Camden Valley Way (Corner Beech Road), Casula NSW 2170",
      "location": {
        "latitude": -33.957141,
        "longitude": 150.882875
      }
    },
    {
      "brand": "7-Eleven",
      "code": "194",
      "name": "7-Eleven Adamstown",
      "address": "531 - 537 Glebe Road & Bryant Street, Adamstown NSW 2289",
      "location": {
        "latitude": -32.934945,
        "longitude": 151.729634
      }
    },
    {
      "brand": "7-Eleven",
      "code": "195",
      "name": "7-Eleven Berkeley",
      "address": "47 Nolan Street (Corner Northcliffe Road), Berkeley NSW 2506",
      "location": {
        "latitude": -34.476871,
        "longitude": 150.839335
      }
    },
    {
      "brand": "7-Eleven",
      "code": "196",
      "name": "7-Eleven Berowra",
      "address": "965-969 Pacific Highway (Corner Waratah Road), Berowra NSW 2081",
      "location": {
        "latitude": -33.627124,
        "longitude": 151.148098
      }
    },
    {
      "brand": "7-Eleven",
      "code": "197",
      "name": "7-Eleven Bexley",
      "address": "611-615  Mimosa Street (Corner Forest Road), Bexley NSW 2207",
      "location": {
        "latitude": -33.955531,
        "longitude": 151.118478
      }
    },
    {
      "brand": "BP",
      "code": "198",
      "name": "BP Connect Kingsford",
      "address": "368 Anzac Parade, Kingsford NSW 2032",
      "location": {
        "latitude": -33.919683,
        "longitude": 151.226795
      }
    },
    {
      "brand": "BP",
      "code": "199",
      "name": "BP Connect Macarthur",
      "address": "Cnr Campbelltown & Blaxland Roads, Campbelltown NSW 2560",
      "location": {
        "latitude": -34.053178,
        "longitude": 150.823322
      }
    },
    {
      "brand": "BP",
      "code": "200",
      "name": "BP Connect Minchinbury",
      "address": "1055 Great Western Highway, Minchinbury NSW 2770",
      "location": {
        "latitude": -33.781986,
        "longitude": 150.824399
      }
    },
    {
      "brand": "7-Eleven",
      "code": "201",
      "name": "7-Eleven Blacktown East",
      "address": "56 Leabons Lane (Corner Blacktown Road), Blacktown East NSW 2148",
      "location": {
        "latitude": -33.780107,
        "longitude": 150.920677
      }
    },
    {
      "brand": "Coles Express",
      "code": "202",
      "name": "Coles Express Campbelltown",
      "address": "27 Queen Street, Campbelltown NSW 2560",
      "location": {
        "latitude": -34.060434,
        "longitude": 150.819361
      }
    },
    {
      "brand": "7-Eleven",
      "code": "203",
      "name": "7-Eleven Blacktown",
      "address": "175 Richmond Road, Blacktown NSW 2148",
      "location": {
        "latitude": -33.754839,
        "longitude": 150.891241
      }
    },
    {
      "brand": "7-Eleven",
      "code": "204",
      "name": "7-Eleven Blacktown",
      "address": "354 Corner Flushcombe Road & Myrtle Street, Blacktown NSW 2148",
      "location": {
        "latitude": -33.795417,
        "longitude": 150.904904
      }
    },
    {
      "brand": "7-Eleven",
      "code": "205",
      "name": "7-Eleven Blaxland",
      "address": "139 Great Western Highway (Corner Layton Avenue), Blaxland NSW 2774",
      "location": {
        "latitude": -33.746366,
        "longitude": 150.613486
      }
    },
    {
      "brand": "7-Eleven",
      "code": "206",
      "name": "7-Eleven Bligh Park",
      "address": "735 George Street, Bligh Park NSW 2756",
      "location": {
        "latitude": -33.637167,
        "longitude": 150.786046
      }
    },
    {
      "brand": "7-Eleven",
      "code": "207",
      "name": "7-Eleven Bonnyrigg",
      "address": "140 Edensor & Bibbys Roads, Bonnyrigg NSW 2177",
      "location": {
        "latitude": -33.884086,
        "longitude": 150.892033
      }
    },
    {
      "brand": "7-Eleven",
      "code": "208",
      "name": "7-Eleven Burwood",
      "address": "Cnr Parramatta & Shaftsbury Rds, Burwood NSW 2134",
      "location": {
        "latitude": -33.869406,
        "longitude": 151.108603
      }
    },
    {
      "brand": "7-Eleven",
      "code": "209",
      "name": "7-Eleven Campbelltown",
      "address": "96 Queen & Broughton Streets, Campbelltown NSW 2560",
      "location": {
        "latitude": -34.06362,
        "longitude": 150.817014
      }
    },
    {
      "brand": "7-Eleven",
      "code": "210",
      "name": "7-Eleven Camperdown",
      "address": "198 Parramatta Road (Corner Pyrmont Bridge Road), Camperdown NSW 2050",
      "location": {
        "latitude": -33.887075,
        "longitude": 151.174103
      }
    },
    {
      "brand": "7-Eleven",
      "code": "211",
      "name": "7-Eleven West Pennant Hills",
      "address": "552 Pennant Hills Road, West Pennant Hills NSW 2125",
      "location": {
        "latitude": -33.74687,
        "longitude": 151.050803
      }
    },
    {
      "brand": "7-Eleven",
      "code": "212",
      "name": "7-Eleven Colyton",
      "address": "104 Great Western Highway & Bennett Road, Colyton NSW 2760",
      "location": {
        "latitude": -33.775081,
        "longitude": 150.793593
      }
    },
    {
      "brand": "Coles Express",
      "code": "213",
      "name": "Coles Express Minto",
      "address": "73 Pembroke Rd (Cnr Durham St), Minto NSW 2566",
      "location": {
        "latitude": -34.023584,
        "longitude": 150.850483
      }
    },
    {
      "brand": "7-Eleven",
      "code": "214",
      "name": "7-Eleven Woolooware",
      "address": "192-198 The Kingsway, Woolooware NSW 2230",
      "location": {
        "latitude": -34.046334,
        "longitude": 151.133566
      }
    },
    {
      "brand": "7-Eleven",
      "code": "215",
      "name": "7-Eleven Croydon Park",
      "address": "342 Georges River Road & Burwood Road, Croydon Park NSW 2133",
      "location": {
        "latitude": -33.897617,
        "longitude": 151.099796
      }
    },
    {
      "brand": "7-Eleven",
      "code": "216",
      "name": "7-Eleven Dapto",
      "address": "125 Princes Highway & Fowles Road, Dapto NSW 2530",
      "location": {
        "latitude": -34.498709,
        "longitude": 150.791372
      }
    },
    {
      "brand": "7-Eleven",
      "code": "217",
      "name": "7-Eleven Dee Why",
      "address": "940 Pittwater Road & Hawkesbury Avenue, Dee Why NSW 2099",
      "location": {
        "latitude": -33.749095,
        "longitude": 151.290234
      }
    },
    {
      "brand": "7-Eleven",
      "code": "218",
      "name": "7-Eleven Eastern Creek",
      "address": "Lot 16 - 25 Great Western Highway, Eastern Creek NSW 2766",
      "location": {
        "latitude": -33.787953,
        "longitude": 150.849664
      }
    },
    {
      "brand": "7-Eleven",
      "code": "219",
      "name": "7-Eleven Emerton",
      "address": "Shop 1, 135-137 Popondetta Road, Emerton NSW 2770",
      "location": {
        "latitude": -33.744639,
        "longitude": 150.810225
      }
    },
    {
      "brand": "7-Eleven",
      "code": "220",
      "name": "7-Eleven Green Valley",
      "address": "187 Wilson Road, Green Valley NSW 2168",
      "location": {
        "latitude": -33.907829,
        "longitude": 150.865922
      }
    },
    {
      "brand": "7-Eleven",
      "code": "221",
      "name": "7-Eleven Haberfield",
      "address": "25 Parramatta Road, Haberfield NSW 2045",
      "location": {
        "latitude": -33.887908,
        "longitude": 151.142813
      }
    },
    {
      "brand": "7-Eleven",
      "code": "222",
      "name": "7-Eleven Minchinbury",
      "address": "1042 Great Western Highway, Minchinbury NSW 2770",
      "location": {
        "latitude": -33.782515,
        "longitude": 150.82857
      }
    },
    {
      "brand": "7-Eleven",
      "code": "223",
      "name": "7-Eleven Edensor Park",
      "address": "Corner Elizabeth & Cowpasture Roads, Edensor Park NSW 2176",
      "location": {
        "latitude": -33.883376,
        "longitude": 150.864788
      }
    },
    {
      "brand": "Coles Express",
      "code": "224",
      "name": "Coles Express Doonside",
      "address": "427 Bungarribee Road, Doonside NSW 2767",
      "location": {
        "latitude": -33.772924,
        "longitude": 150.87627
      }
    },
    {
      "brand": "Coles Express",
      "code": "225",
      "name": "Coles Express Liverpool",
      "address": "338-340 Hume Highway, Liverpool NSW 2170",
      "location": {
        "latitude": -33.93145,
        "longitude": 150.917675
      }
    },
    {
      "brand": "7-Eleven",
      "code": "226",
      "name": "7-Eleven Emu Plains",
      "address": "126-128 Old Bathurst Road & Corner Russell Street, Emu Plains NSW 2750",
      "location": {
        "latitude": -33.748121,
        "longitude": 150.654108
      }
    },
    {
      "brand": "7-Eleven",
      "code": "227",
      "name": "7-Eleven Epping",
      "address": "246 Beecroft & Carlingford Roads, Epping NSW 2121",
      "location": {
        "latitude": -33.770913,
        "longitude": 151.081199
      }
    },
    {
      "brand": "7-Eleven",
      "code": "228",
      "name": "7-Eleven Cardiff",
      "address": "397 Main Road (Corner Lowry Street), Cardiff NSW 2285",
      "location": {
        "latitude": -32.933901,
        "longitude": 151.655571
      }
    },
    {
      "brand": "7-Eleven",
      "code": "229",
      "name": "7-Eleven Gosford West",
      "address": "55 Central Coast Highway, Gosford West NSW 2250",
      "location": {
        "latitude": -33.427077,
        "longitude": 151.33001
      }
    },
    {
      "brand": "7-Eleven",
      "code": "230",
      "name": "7-Eleven Granville",
      "address": "154-160 Parramatta Road & Corner Bold Street, Granville NSW 2142",
      "location": {
        "latitude": -33.8301284,
        "longitude": 151.01003
      }
    },
    {
      "brand": "7-Eleven",
      "code": "231",
      "name": "7-Eleven Granville East",
      "address": "Lot 3-4 Parramatta Road & Harbord Street, Granville East NSW 2142",
      "location": {
        "latitude": -33.835001,
        "longitude": 151.021825
      }
    },
    {
      "brand": "7-Eleven",
      "code": "232",
      "name": "7-Eleven Greenacre",
      "address": "301-305 Hume Highway & Boronia Road, Greenacre NSW 2190",
      "location": {
        "latitude": -33.905181,
        "longitude": 151.041756
      }
    },
    {
      "brand": "7-Eleven",
      "code": "233",
      "name": "7-Eleven Gymea",
      "address": "110 Gymea Bay Rd (Cnr 337-339 President Avenue), Gymea NSW 2227",
      "location": {
        "latitude": -34.037679,
        "longitude": 151.084491
      }
    },
    {
      "brand": "7-Eleven",
      "code": "234",
      "name": "7-Eleven Hassall Grove",
      "address": "795 Luxford Road  (Corner Buckwell Drive), Hassall Grove NSW 2761",
      "location": {
        "latitude": -33.735368,
        "longitude": 150.836663
      }
    },
    {
      "brand": "7-Eleven",
      "code": "235",
      "name": "7-Eleven Ingleburn",
      "address": "63 Oxford & Cumberland Streets, Ingleburn NSW 2565",
      "location": {
        "latitude": -33.99995,
        "longitude": 150.86794
      }
    },
    {
      "brand": "Coles Express",
      "code": "236",
      "name": "Coles Express Bathurst",
      "address": "298 Stewart St (Cnr Rocket St), Bathurst NSW 2795",
      "location": {
        "latitude": -33.419053,
        "longitude": 149.56761
      }
    },
    {
      "brand": "7-Eleven",
      "code": "237",
      "name": "7-Eleven Jamisontown",
      "address": "92 Mulgoa Road & Batt Street, Jamisontown NSW 2750",
      "location": {
        "latitude": -33.766148,
        "longitude": 150.679467
      }
    },
    {
      "brand": "7-Eleven",
      "code": "238",
      "name": "7-Eleven Kensington",
      "address": "110 Anzac Parade & Goodwood Street, Kensington NSW 2033",
      "location": {
        "latitude": -33.907017,
        "longitude": 151.223796
      }
    },
    {
      "brand": "7-Eleven",
      "code": "239",
      "name": "7-Eleven Kensington",
      "address": "131 Anzac Parade & Todman Avenue, Kensington NSW 2033",
      "location": {
        "latitude": -33.910008,
        "longitude": 151.223177
      }
    },
    {
      "brand": "7-Eleven",
      "code": "240",
      "name": "7-Eleven Killara",
      "address": "494 Pacific Hwy, Killara NSW 2071",
      "location": {
        "latitude": -33.771365,
        "longitude": 151.16108
      }
    },
    {
      "brand": "7-Eleven",
      "code": "241",
      "name": "7-Eleven Plumpton",
      "address": "291 Rooty Hill Road North, Plumpton NSW 2761",
      "location": {
        "latitude": -33.753565,
        "longitude": 150.840322
      }
    },